,이름,주소,가격,셀프,상표,구,lat,lng,거리
0,지에스칼텍스㈜ 신월주유소,서울 강동구 양재대로 1323 (성내동),1415.0,N,GS칼텍스,강동구,37.5245352149831,127.134421461173,20.44340448270174
1,지에스칼텍스㈜ 동서울주유소,서울 강동구 천호대로 1456 (상일동),1415.0,Y,GS칼텍스,강동구,37.5452341163059,127.170218863794,23.615182441120968
2,구천면주유소,서울 강동구 구천면로 357 (암사동),1424.0,N,현대오일뱅크,강동구,37.5504579000579,127.138226914948,20.845347044344997
3,방아다리주유소,서울 강동구 동남로 811 (명일동),1435.0,Y,SK에너지,강동구,37.546060636112,127.155495129904,22.324985580797705
4,대성석유(주)직영 길동주유소,서울 강동구 천호대로 1168,1448.0,N,GS칼텍스,강동구,37.5334199332869,127.141184621649,21.017289934240374
5,(주)퍼스트오일 코알라주유소,서울특별시 강동구  올림픽로 556 (성내동),1448.0,Y,S-OIL,강동구,37.5313314897305,127.121249029645,19.26043586858182
6,현대오일뱅크㈜직영 명일셀프주유소,서울 강동구 고덕로 168 (명일동),1448.0,Y,현대오일뱅크,강동구,37.5544786253203,127.144011308896,21.398029977105246
7,sk해뜨는주유소,서울 강동구  상일로 132 (강일동),1455.0,Y,SK에너지,강동구,37.5587673802815,127.171390708337,23.850351982482405
8,주)지유에너지직영 오렌지주유소,서울 강동구 성안로 102 (성내동),1456.0,N,SK에너지,강동구,37.5323206515916,127.1330903311,20.3037468231159
9,현대오일뱅크㈜직영 고속셀프주유소,서울 강동구 천호대로 1246,1457.0,Y,현대오일뱅크,강동구,37.5364168582452,127.149372429092,21.742219837742585
10,현대오일뱅크㈜직영 암사셀프주유소,서울 강동구 올림픽로 749 (암사동),1457.0,Y,현대오일뱅크,강동구,37.5481992403343,127.126442999028,19.788345316342046
11,천호현대주유소,서울 강동구 천중로 67 (천호동),1465.0,N,현대오일뱅크,강동구,37.5451778567405,127.129496550003,20.031357654101914
12,(주)삼표에너지 고덕주유소,서울 강동구 고덕로 39 (암사동),1478.0,N,GS칼텍스,강동구,37.5550602507921,127.129843660096,20.164987890369957
13,(주)소모에너지엔테크놀러지 성내주유소,서울 강동구 올림픽로 578 (성내동),1478.0,Y,GS칼텍스,강동구,37.5332604712366,127.122008039141,19.326327821655557
14,광성주유소,서울 강동구 올림픽로 673 (천호동),1498.0,N,S-OIL,강동구,37.5415768035116,127.124241977598,19.545844107465367
15,강동주유소,서울 강동구 양재대로 1509 (길동),1893.0,N,SK에너지,강동구,37.5407771518545,127.140719072077,20.99326964992684
16,재원에너지(주)용일주유소,서울 동대문구 안암로 54 (용두동),1322.0,N,GS칼텍스,동대문구,37.5813972756249,127.028117940885,12.288475986443379
17,풍한주유소,서울 동대문구 안암로 168,1325.0,N,SK에너지,동대문구,37.5892107111281,127.035992810349,13.301338539958811
18,(주)경동주유소,서울 동대문구 이문로 191 (이문동),1340.0,Y,S-OIL,동대문구,37.6036482256361,127.061800563122,16.06650976680611
19,대성산업㈜청량리주유소,서울 동대문구 왕산로 289 (청량리동),1340.0,Y,GS칼텍스,동대문구,37.5864699557701,127.0516032116,14.401530668576733
20,재정제2주유소,서울 동대문구 사가정로 90 (전농동),1352.0,Y,현대오일뱅크,동대문구,37.5759083008078,127.055631542737,14.292124660288946
21,재정주유소,서울 동대문구 전농로 121 (전농동),1352.0,N,현대오일뱅크,동대문구,37.5757753233693,127.057492519248,14.441963477983181
22,웰컴주유소,서울 동대문구 한천로 414 (이문동),1355.0,N,현대오일뱅크,동대문구,37.5975437366033,127.068038613189,16.23712164705509
23,열린주유소,서울 동대문구 한천로 263 (휘경동),1365.0,N,GS칼텍스,동대문구,37.5843890962343,127.067683930685,15.61708412290179
24,(주)파랑에너지,서울 동대문구 망우로 1,1369.0,Y,GS칼텍스,동대문구,37.5883415442949,127.054114773752,14.689318074873302
25,배봉로주유소,서울 동대문구 서울시립대로 108,1369.0,Y,현대오일뱅크,동대문구,37.5800249265392,127.051082862686,14.078308392648934
26,동일석유(주)강남주유소,서울특별시 동대문구  사가정로 103 (전농동),1379.0,N,SK에너지,동대문구,37.5770427148996,127.056449394545,14.40246334053731
27,홍능주유소,서울 동대문구 홍릉로 87 (청량리동),1387.0,N,S-OIL,동대문구,37.5880092172875,127.042553030596,13.754353506429457
28,삼원셀프주유소,서울 동대문구 망우로 90 (휘경동),1389.0,Y,SK에너지,동대문구,37.5901831438414,127.063235322657,15.505584700298206
29,삼영주유소,서울 동대문구 답십리로 258 (장안동),1398.0,N,SK에너지,동대문구,37.5722270053461,127.068815663753,15.270568608462394
30,답십리주유소,서울 동대문구 답십리로 223 (답십리동),1398.0,N,SK에너지,동대문구,37.572938596472,127.06502684193,14.974087505327475
31,삼미상사(주)장안킹셀프주유소,서울 동대문구  한천로 100 (장안동),1398.0,Y,SK에너지,동대문구,37.5701668831791,127.064994661697,14.882964590982958
32,대성산업(주)동마장주유소,서울 동대문구 고산자로 405 (용두동),1418.0,N,GS칼텍스,동대문구,37.5758650176352,127.037718750466,12.813042691401224
33,오동나무주유소,서울 동대문구  한천로 81 (답십리동),1428.0,N,S-OIL,동대문구,37.5689447519836,127.063376287307,14.708513648630765
34,현대오일뱅크㈜직영 스피드주유소,서울 동대문구 천호대로 453 (장안동),1438.0,N,현대오일뱅크,동대문구,37.5612269362214,127.069417973378,15.01951141069737
35,신성주유소,서울 동대문구 장한로 29 (장안동),1497.0,N,현대오일뱅크,동대문구,37.5642095897862,127.065969228945,14.796496264268011
36,한영주유소 (한화),서울 동대문구 망우로 38 (휘경동),1499.0,N,현대오일뱅크,동대문구,37.5884253186329,127.057395478312,14.956154804393199
37,능주주유소,서울 동대문구 청계천로 431 (신설동),1563.0,N,SK에너지,동대문구,37.5716346639059,127.025224782012,11.616019334659823
38,지에스칼텍스(주) 대방주유소,서울 동작구 여의대방로 214,1358.0,N,GS칼텍스,동작구,37.5057358255661,126.922881347334,3.5029371086248386
39,대성산업(주) 노량진주유소,서울 동작구 노량진로 172 (노량진동),1398.0,N,GS칼텍스,동작구,37.5135542349837,126.945015161205,4.298874259712501
40,매일주유소,서울 동작구 상도로 139 (상도동),1399.0,N,S-OIL,동작구,37.5028629715876,126.93518145624,4.395189654081284
41,창원이엔지주유소,서울 동작구 사당로 59 (상도동),1399.0,N,현대오일뱅크,동작구,37.494936328044,126.961445941667,6.6763835186081275
42,현대오일뱅크㈜직영 신대방셀프주유소,서울 동작구 시흥대로 616 (신대방동),1408.0,Y,현대오일뱅크,동작구,37.4870838318408,126.905639241172,5.104006455525453
43,(주)성림에너지 남성주유소,서울 동작구 동작대로 135 (사당동),1429.0,Y,GS칼텍스,동작구,37.4887034791074,126.981970010334,8.538616577395654
44,현대오일뱅크㈜직영 흑석동셀프주유소,서울 동작구 현충로 101 (흑석동),1429.0,Y,현대오일뱅크,동작구,37.5081000291855,126.965239054896,6.157442351912258
45,현대오일뱅크(주)직영 사당셀프주유소,서울 동작구 동작대로 73 (사당동),1429.0,Y,현대오일뱅크,동작구,37.4831195026339,126.98153085422,8.880597647598066
46,현대오일뱅크(주)직영 동작주유소,서울 동작구 상도로 403 (상도동),1455.0,N,현대오일뱅크,동작구,37.4934718918359,126.956435112111,6.450024810897562
47,살피재주유소,서울 동작구 상도로 334,1495.0,N,SK에너지,동작구,37.4983604973766,126.951389038225,5.754710348077463
48,에스오일(주) 염리동주유소,서울 마포구 백범로 126 (염리동),1388.0,Y,S-OIL,마포구,37.546289031379,126.944762996986,3.984109584741411
49,마포시엠주유소,서울 마포구 월드컵북로62 (성산동),1397.0,N,GS칼텍스,마포구,37.5597772413684,126.917179478209,3.2420081557166482
50,성산주유소,서울 마포구 월드컵북로 170 (성산제2동),1407.0,N,SK에너지,마포구,37.567465744446,126.909844646131,3.889484991165504
51,청원주유소,서울 마포구 월드컵북로 113 (성산동),1428.0,N,현대오일뱅크,마포구,37.5631741949394,126.913189228501,3.4845804652838885
52,용강주유소,서울 마포구 토정로 258,1436.0,N,S-OIL,마포구,37.543028193238,126.938847645255,3.3680357959000586
54,현대오일뱅크㈜직영 마포제일주유소,서울 마포구 서강로 76 (창전동),1438.0,N,현대오일뱅크,마포구,37.5498342666849,126.932591311368,3.227405322717543
55,망원동주유소,서울 마포구 월드컵로 119 (망원동),1448.0,N,SK에너지,마포구,37.5587410471986,126.907182114043,2.89541277531372
56,현대오일뱅크㈜직영 성산대교주유소,서울 마포구 성산로 144,1473.0,N,현대오일뱅크,마포구,37.5643351190322,126.909458037833,3.5404503030761076
57,SK에너지(주) 안국주유소,서울 마포구 양화로 33 (합정동),1584.0,N,SK에너지,마포구,37.5493308066931,126.912557082288,2.015005135811484
58,마포주유소,서울 마포구 마포대로 186 (공덕동),1697.0,N,S-OIL,마포구,37.5505948047115,126.95563699696,5.052869159015874
59,SK에너지 양지주유소,서울 마포구 마포대로 69 (도화동),1699.0,N,SK에너지,마포구,37.5421183825596,126.948522081226,4.155946238939557
60,행촌제2주유소,서울 서대문구 성산로 490 (대신동),1360.0,N,SK에너지,서대문구,37.5610155646644,126.941569342334,4.627535806376102
61,(주)마봉 구도일주유소 두꺼비,서울 서대문구 성산로 312 (연희동),1360.0,Y,S-OIL,서대문구,37.5660708443759,126.924941152249,4.1686053552758615
62,연희주유소,서울 서대문구 연희로 129 (연희동 89-7번지),1360.0,N,SK에너지,서대문구,37.5693077959774,126.932458194132,4.8147108615815775
63,(주)창원이엔지 홍제지점,서울 서대문구 통일로 455 (홍제동),1369.0,N,현대오일뱅크,서대문구,37.5891287172466,126.943337675172,7.196859025752528
64,(주)마봉 신우주유소,서울 서대문구 가좌로 106 (홍은동),1375.0,Y,S-OIL,서대문구,37.5822575743325,126.926519409089,5.868783169298976
65,(주)가재울뉴타운주유소,서울 서대문구 모래내로 205,1380.0,Y,현대오일뱅크,서대문구,37.5732608965137,126.922462434868,4.806704982770817
66,남정주유소,서울 서대문구 모래내로 243 (남가좌동),1385.0,N,GS칼텍스,서대문구,37.5756715829004,126.925518366048,5.156080273863112
67,광호주유소,서울 서대문구 연희로 266 (홍은동),1385.0,N,SK에너지,서대문구,37.5807686609718,126.936581879011,6.094639620416435
68,코리아상사연세주유소,서울 서대문구 연희로 184,1385.0,Y,GS칼텍스,서대문구,37.5734779131892,126.935927536368,5.3701206924340354
69,삼보셀프주유소,서울 서대문구 연희로 78 (연희동),1389.0,Y,SK에너지,서대문구,37.5650243399688,126.929929031318,4.294254378662302
70,삼미상사(주)서부주유소,서울 서대문구 성산로 255 (연희동),1390.0,Y,SK에너지,서대문구,37.5677454628917,126.918985802478,4.124736975172923
71,지에스칼텍스(주)홍제동주유소,서울 서대문구 통일로 372,1395.0,Y,GS칼텍스,서대문구,37.5835529130439,126.950101908476,7.003188819659005
72,중앙에너비스 동교지점,서울 서대문구 연희로 12 (창천동),1398.0,Y,SK에너지,서대문구,37.5598695838504,126.92684981646,3.6681575806860787
73,현대오일뱅크㈜직영 독립문주유소,서울 서대문구 통일로 384 (홍제동),1409.0,N,현대오일뱅크,서대문구,37.5841890713335,126.94938946313,7.0232811269942745
74,문화촌주유소,서울 서대문구 세검정로 87 (홍제동),1598.0,N,S-OIL,서대문구,37.5954419804145,126.948477443752,8.031179801304475
75,만남의광장주유소,서울 서초구 양재대로12길 73-71,1297.0,Y,알뜰(ex),서초구,37.4596446385464,127.042624862658,14.781725246988337
76,지에스칼텍스(주)헌릉로주유소,서울 서초구 헌릉로 177 (내곡동),1395.0,Y,GS칼텍스,서초구,37.4574434815458,127.060193087568,16.222961058909096
77,양재주유소,서울 서초구 바우뫼로 178 (양재동),1395.0,N,SK에너지,서초구,37.4780861398106,127.039597278471,13.517789088865202
78,지에스칼텍스(주)내곡주유소,서울 서초구 헌릉로 210,1395.0,N,GS칼텍스,서초구,37.455297697201,127.062833263205,16.54612064153842
79,양재최고주유소,서울 서초구 매헌로 72 (양재동),1395.0,N,S-OIL,서초구,37.4671915776126,127.034715543613,13.740054598058682
80,태봉셀프주유소,서울 서초구 태봉로 117 (우면동),1395.0,Y,SK에너지,서초구,37.4682517426698,127.028145932927,13.18819513126976
81,강남대로주유소,서울 서초구 강남대로 206 (양재동),1395.0,Y,S-OIL,서초구,37.4826415320329,127.036583601847,13.055919623291935
82,말죽거리주유소,서울 서초구 남부순환로 2650 (양재동),1396.0,N,GS칼텍스,서초구,37.4852151024163,127.040657880963,13.264325382758837
83,(주)대농석유 남태령주유소,서울 서초구 과천대로 838 (방배동),1397.0,Y,SK에너지,서초구,37.4668335881167,126.987972808104,10.508526814305055
84,에쓰오일(주)직영 오토테크주유소,서울특별시 서초구  효령로 356 (서초동),1409.0,Y,S-OIL,서초구,37.4864968459389,127.023063981282,11.795092736604502
85,(주)홈런주유소,서울 서초구 양재대로2길 100-30 (우면동),1409.0,Y,S-OIL,서초구,37.4572824578308,127.016168490217,13.06642411244899
86,지에스칼텍스(주)선천주유소,서울 서초구 동작대로 206 (방배동),1414.0,N,GS칼텍스,서초구,37.4949333176608,126.983215580857,8.253236772703296
87,(주)한미석유 서초주유소,서울 서초구 반포대로 64 (서초동),1415.0,N,GS칼텍스,서초구,37.4862238886445,127.010772295666,10.84521720602973
88,(주)한미건설 서울주유소,서울 서초구 서초중앙로 91 (서초동),1415.0,N,GS칼텍스,서초구,37.4898645152162,127.014068709282,10.917603166163019
89,대성석유(주)연일주유소,서울 서초구 남부순환로 2451,1415.0,N,GS칼텍스,서초구,37.4826019457759,127.018580385827,11.642935591736377
90,양재현대주유소,서울 서초구 마방로 6,1418.0,N,현대오일뱅크,서초구,37.4735504238038,127.039695160631,13.760588396434807
91,한독주유소,서울 서초구 방배로 218 (방배동),1419.0,N,GS칼텍스,서초구,37.4927581359784,126.990882351222,8.959107753348503
92,현대오일뱅크(주)직영 팔레스주유소,서울 서초구 사평대로 136 (반포동),1419.0,N,현대오일뱅크,서초구,37.5001585428224,126.999179646152,9.245881430477075
93,지에스칼텍스(주)남서울주유소,서울 서초구 나루터로 83 (잠원동),1422.0,N,GS칼텍스,서초구,37.5161552826768,127.018859270173,10.400681888627194
94,서초꽃마을주유소,서울 서초구 반포대로 69 (서초동),1425.0,N,GS칼텍스,서초구,37.4864727516209,127.009679178115,10.747329665098748
95,신반포주유소,서울 서초구 사평대로 94 (반포동),1428.0,N,SK에너지,서초구,37.4983886833497,126.994998605875,8.990548604677105
96,현대오일뱅크(주)직영 방배현대주유소,서울 서초구 동작대로 182 (방배동),1429.0,N,현대오일뱅크,서초구,37.4927534366922,126.983325076533,8.388174709769418
97,현대오일뱅크㈜직영 반포셀프주유소,서울 서초구 사평대로 12,1429.0,Y,현대오일뱅크,서초구,37.4983544158997,126.98577963148,8.264466137488043
98,대신석유(주)대우주유소,서울 서초구 양재대로 173 (양재동),1439.0,Y,SK에너지,서초구,37.4628348082628,127.037147595122,14.182834536161545
99,반포그린주유소,서울 서초구 서초중앙로 239 (반포동),1442.0,N,GS칼텍스,서초구,37.503204616056,127.010876972267,10.08594283956863
100,대성산업(주)직영강남주유소,서울 서초구 반포대로 284 (반포동),1442.0,N,GS칼텍스,서초구,37.5046512165389,127.001827980942,9.279788656066598
101,대성산업(주)직영 터미널(고속)주유소,서울 서초구 신반포로 222 (반포동),1442.0,N,GS칼텍스,서초구,37.5068860321425,127.00872532633,9.777667948160072
102,현대오일뱅크(주)직영 서초제일주유소,서울 서초구 사임당로 116 (서초동),1462.0,N,현대오일뱅크,서초구,37.4905850808047,127.022588286106,11.564696766475484
103,경일석유(주)직영 삼방주유소,서울 서초구 사평대로 364 (서초동),1497.0,N,GS칼텍스,서초구,37.5037327208746,127.023195609704,11.100740238034884
104,방배동주유소,서울 서초구 효령로 29 (방배동),1497.0,N,SK에너지,서초구,37.4781641318381,126.987763194218,9.654567784225755
105,크로바주유소,서울 서초구 효령로 327 (서초동),1539.0,N,SK에너지,서초구,37.4863801903062,127.019957824568,11.555192702010249
106,현대오일뱅크㈜직영 사평로주유소,서울 서초구 사평대로 350 (서초동),1682.0,N,현대오일뱅크,서초구,37.503281185781,127.02150866453,10.97356229607716
107,대신석유㈜서원주유소,서울 서초구 반포대로 142 (서초동),1878.0,N,SK에너지,서초구,37.492730944688,127.007571181715,10.262666865785246
108,중앙주유소,서울 서초구 양재동 바우뫼로 219 (양재동),1878.0,N,S-OIL,서초구,37.481559699114,127.042231529687,13.558109247345152
109,선우상사Q엔느,서울 서초구 방배로 66 (방배동),1897.0,N,SK에너지,서초구,37.4806926277812,126.998516306835,10.245722576123534
110,KLP제2주유소,서울 성동구 동일로 249 (송정동),1345.0,Y,현대오일뱅크,성동구,37.5540124113316,127.070433103392,14.961250168180614
111,(주)서울에너지 직영,서울 성동구 천호대로 324 (용답동),1352.0,Y,S-OIL,성동구,37.5642339425388,127.055593318567,13.909727146057667
112,정호주유소,서울 성동구 고산자로 307 (마장동),1378.0,N,자가상표,성동구,37.5672020506377,127.036537420429,12.38769748488105
113,SK에너지(주) 군자동주유소,서울 성동구 천호대로 446 (용답동),1394.0,N,SK에너지,성동구,37.560534180112,127.068301931583,14.907332808916049
114,지에스칼텍스㈜ 도루코주유소,서울 성동구 아차산로 180,1395.0,Y,GS칼텍스,성동구,37.5420274264746,127.063423424356,14.195675900248496
115,아이콘주유소,서울 성동구 고산자로 273 (도선동),1418.0,N,S-OIL,성동구,37.5641283119055,127.035920071533,12.234892882122935
116,현대오일뱅크(주) 성동셀프주유소,서울 성동구 마장로 311 (마장동),1430.0,Y,현대오일뱅크,성동구,37.5670168870809,127.04372064792,12.98569803615956
117,삼우주유소,서울 성동구 천호대로 392,1448.0,N,SK에너지,성동구,37.5614150648805,127.062310521717,14.411975658899493
118,kh에너지(주)성수만세주유소,서울 성동구 왕십리로 109,1455.0,Y,SK에너지,성동구,37.5474976267809,127.044350756633,12.582140150791002
119,SK에너지(주) 성수주유소,서울 성동구 뚝섬로 352 (성수동1가),1455.0,N,SK에너지,성동구,37.5400047737799,127.049900172954,12.991223700865094
120,경진주유소,서울 성동구 고산자로 348 (마장동),1488.0,N,SK에너지,성동구,37.5705452309376,127.03813195036,12.639370004020932
121,SK세원2주유소,서울 성동구 광나루로 184 (성수동1가),1490.0,N,SK에너지,성동구,37.5508602334419,127.050436462226,13.165549592931887
122,현대오일뱅크㈜직영 효진주유소,서울 성동구 동일로 129,1508.0,N,현대오일뱅크,성동구,37.5441143795743,127.064645129354,14.321207208992579
123,금호주유소,서울 성동구 금호로 39 (금호동4가),1595.0,N,GS칼텍스,성동구,37.5470409999369,127.025032153735,10.887808958473125
124,동일주유소,서울 성동구 광나루로 254 (성수동2가),1685.0,N,현대오일뱅크,성동구,37.5485761967423,127.057911486572,13.78321886871757
125,청계로주유소,서울 성동구 청계천로 454 (하왕십리동),1698.0,N,SK에너지,성동구,37.5700413114581,127.027391824017,11.730290374780829
126,(주)옥수하이웨이스테이션,서울 성동구 독서당로 168 (옥수동),1705.0,N,GS칼텍스,성동구,37.5408496346983,127.011382906693,9.6115356033732
127,원천주유소,서울 성북구 돌곶이로 142 (장위동),1315.0,N,알뜰주유소,성북구,37.6149596653136,127.052767760078,16.055977902052156
128,강산제2주유소,서울 성북구 보국문로 52,1317.0,Y,현대오일뱅크,성북구,37.6091774896632,127.010120328789,12.699830888381072
129,(주)삼표에너지 정릉주유소,서울 성북구 보국문로 35 (정릉동),1317.0,Y,GS칼텍스,성북구,37.6076158170175,127.00997322889,12.574905296482758
130,이케이에너지㈜ 강산주유소,서울 성북구 보문로 27 (보문동7가),1317.0,Y,GS칼텍스,성북구,37.5779480661943,127.022800763795,11.700095166105884
131,㈜명연에너지 효성주유소,서울 성북구 화랑로 27,1327.0,N,GS칼텍스,성북구,37.6031889817123,127.035329356198,14.049922943807804
132,(주)신용 구도일주유소화랑로,서울 성북구 화랑로 174,1327.0,Y,S-OIL,성북구,37.6069071610892,127.050090586822,15.365569798564524
133,장위주유소,서울 성북구 화랑로 110 (하월곡동),1329.0,Y,S-OIL,성북구,37.6034637786359,127.043444018874,14.666060440114114
134,신방주유소,서울 성북구 안암로 111 (안암동5가),1342.0,N,S-OIL,성북구,37.585570267124,127.03185811318,12.790888237832306
135,우리주유소,서울 성북구 화랑로 292 (석관동),1344.0,Y,SK에너지,성북구,37.6126157123372,127.061400134261,16.546830182159653
136,중앙에너비스 종암지점,서울 성북구 종암로 58,1347.0,Y,SK에너지,성북구,37.5957774048863,127.036011599387,13.661057340540292
137,(주)성북주유소,서울 성북구 보문로 142,1357.0,N,현대오일뱅크,성북구,37.5876710055984,127.018389424981,11.865821433782267
138,삼선주유소,서울 성북구 창경궁로 324,1357.0,Y,S-OIL,성북구,37.58798513267,127.005541114305,10.928646669494922
139,재정제2주유소 길음지점,서울 성북구 삼양로 78 (길음동),1359.0,N,현대오일뱅크,성북구,37.6102988135483,127.022752309268,13.627421407927306
140,GS칼텍스(주) 종암주유소,서울 성북구 종암로 145 (종암동),1369.0,Y,GS칼텍스,성북구,37.6027851035284,127.03204755082,13.785121311440665
141,지에스칼텍스㈜ 화랑주유소,서울 성북구 화랑로 185,1377.0,N,GS칼텍스,성북구,37.6078690506394,127.050739603739,15.471186190824316
142,현대오일뱅크㈜직영 고대셀프주유소,서울 성북구 종암로 12 (종암동),1380.0,Y,현대오일뱅크,성북구,37.5914409003495,127.036697935025,13.474034390343958
143,현대오일뱅크㈜직영 광덕셀프주유소,서울 성북구 보문로 89 (보문동5가),1387.0,Y,현대오일뱅크,성북구,37.5831161260631,127.020045209406,11.742640394132318
144,현대오일뱅크㈜직영 북악셀프주유소,서울 성북구 정릉로 218 (정릉동),1389.0,Y,현대오일뱅크,성북구,37.6054307579856,127.008551321932,12.320851942533215
145,현대오일뱅크(주)직영 장삼주유소,서울 성북구 한천로 612 (장위동),1389.0,Y,현대오일뱅크,성북구,37.6136383135999,127.060216713088,16.520254163242885
146,현대오일뱅크㈜직영 아리랑주유소,서울 성북구 아리랑로 96 (정릉동),1409.0,N,현대오일뱅크,성북구,37.6005363027457,127.014211710411,12.364322166503447
147,SK에너지(주) 드림랜드주유소,서울 성북구 월계로 128 (장위동),1414.0,N,SK에너지,성북구,37.6166166995599,127.041411636405,15.35380489718866
148,지에스칼텍스㈜ 세창주유소,서울 성북구 동소문로 323,1418.0,Y,GS칼텍스,성북구,37.6088083513732,127.029473489653,13.991307094117513
149,동일주유소,서울특별시 성북구  보문로 85 (보문동5가),1425.0,N,GS칼텍스,성북구,37.5829579453996,127.020374169754,11.759841728925029
150,삼전셀프주유소,서울 송파구 백제고분로 199,1342.0,Y,SK에너지,송파구,37.5043421445766,127.089041736764,16.72743004405018
151,지에스이앤알 직영 송파제일주유소,서울 송파구 삼학사로 50 (석촌동),1342.0,Y,현대오일뱅크,송파구,37.501693668377,127.097232908506,17.49360881785003
152,방이주유소,서울 송파구 위례성대로12길 38 (방이동),1347.0,N,SK에너지,송파구,37.510697303932,127.120691625554,19.371532181736843
153,아시아주유소,서울 송파구 도곡로 438 (잠실동),1347.0,Y,GS칼텍스,송파구,37.5046106505557,127.077393903247,15.714046792858344
154,(주)뉴명성산업 남성주유소,서울 송파구 백제고분로 474 (방이동),1347.0,N,현대오일뱅크,송파구,37.5126146696919,127.114042344325,18.762969654328337
155,삼정주유소,서울 송파구 백제고분로 252 (삼전동),1347.0,Y,GS칼텍스,송파구,37.502383423532,127.094299487454,17.224753812663728
156,백제고분로주유소,서울 송파구 오금로 143 (방이동),1347.0,Y,SK에너지,송파구,37.5110669836967,127.111049573145,18.522974813704028
157,삼화주유소,서울 송파구 백제고분로 125,1347.0,Y,GS칼텍스,송파구,37.5066508882331,127.080887734191,15.972783871588756
159,상아주유소,서울 송파구 거마로 82 (마천동),1363.0,Y,현대오일뱅크,송파구,37.5001269475186,127.147837632763,21.914399355601887
160,지에스칼텍스(주)우리주유소,서울 송파구 동남로 153,1375.0,N,GS칼텍스,송파구,37.4924714993498,127.127383321556,20.310231545293384
161,한강에너지(주)퍼스트주유소,서울 송파구 삼학사로 22 (석촌동),1379.0,Y,SK에너지,송파구,37.499307755111,127.097184353139,17.54429621159263
162,(주)잠실에너지,서울 송파구 송파대로 442 (송파동),1383.0,Y,S-OIL,송파구,37.5063758984326,127.106656298253,18.216758567968654
163,대성주유소,서울 송파구 마천로 230 (마천동),1388.0,N,SK에너지,송파구,37.5000478635493,127.143135663709,21.50709834857339
164,대성석유(주)석촌주유소,서울 송파구 백제고분로 289,1388.0,N,GS칼텍스,송파구,37.5028882169283,127.09854306751,17.581017008908155
165,(주)삼표에너지 훼미리주유소,서울 송파구 중대로 58 (문정동),1388.0,N,GS칼텍스,송파구,37.491231007616,127.115353624591,19.309789496802185
166,지에스칼텍스(주)스마트위례주유소,서울 송파구 위례중앙로 43 (장지동),1393.0,Y,GS칼텍스,송파구,37.4753528139164,127.132288546135,21.22911537888458
167,완불주유소,서울 송파구 송파대로 3 (장지동),1393.0,Y,SK에너지,송파구,37.4711645321762,127.126135074857,20.861409348308847
168,남성대주유소,서울 송파구 송파대로 52 (장지동),1395.0,Y,SK에너지,송파구,37.4753715575202,127.127533028931,20.828895179642785
169,(주)유진주유소,서울 송파구 동남로 325 (오금동),1397.0,N,SK에너지,송파구,37.5045223318768,127.138382736122,21.012980069278946
170,(주)남경석유 세영주유소,서울 송파구 동남로 298,1399.0,N,GS칼텍스,송파구,37.5019781108768,127.13804328656,21.028181622271884
171,현대오일뱅크㈜직영 잠실셀프주유소,서울 송파구 송파대로 397 (석촌동),1406.0,Y,현대오일뱅크,송파구,37.5027344100674,127.109010365586,18.491318095079055
172,지에스칼텍스(주)가든파이브주유소,서울 송파구 탄천동로 740,1407.0,Y,GS칼텍스,송파구,37.4758375513871,127.12364117535,20.486293823452794
173,제트라인DM주유소,서울 송파구 중대로 183 (가락동),1417.0,N,현대오일뱅크,송파구,37.4985459828951,127.125371637464,19.99639569850155
174,송파주유소,서울 송파구 송이로 28 (송파동),1417.0,Y,GS칼텍스,송파구,37.5025530777453,127.116428012121,19.138587580269125
175,(주)퍼스트오일서울주유소,서울 송파구 문정로 153 (가락동),1418.0,N,S-OIL,송파구,37.4932142265767,127.136397908655,21.06875260236687
176,(주)정직한주유소,서울 송파구 오금로 455 (거여동),1418.0,Y,현대오일뱅크,송파구,37.4955776534144,127.140323807598,21.354460374879512
177,(주)신화에너지 서울지점,서울 송파구 가락로 47 (석촌동),1419.0,Y,SK에너지,송파구,37.4995184526258,127.101735773908,17.93181187340766
178,송파알찬주유소,서울 송파구 백제고분로 229 (삼전동),1438.0,N,S-OIL,송파구,37.5035637666863,127.092211995022,17.0184990859027
179,현대오일뱅크㈜직영 거여셀프주유소,서울 송파구 거마로 5 (거여동),1439.0,Y,현대오일뱅크,송파구,37.4937594895595,127.144233543455,21.73268684550764
180,현대오일뱅크㈜직영 서원주유소,서울 송파구 중대로 154 (가락동),1450.0,N,현대오일뱅크,송파구,37.4957794385955,127.12478101547,20.006871966014025
181,현대오일뱅크㈜직영 올림픽셀프주유소,서울 송파구 위례성대로 188 (오금동),1452.0,Y,현대오일뱅크,송파구,37.5097379558053,127.131862743873,20.362422375075475
182,대신석유(주)진양주유소,서울 송파구 올림픽로 499 (풍납동),1659.0,N,SK에너지,송파구,37.5270124361515,127.118061832225,18.99052794578382
183,현대주유소,서울 양천구 남부순환로 372 (신월동),1316.0,Y,S-OIL,양천구,37.5339097605129,126.829178494291,6.495671825904087
184,개나리Self주유소,서울 양천구 남부순환로 442 (신월동),1325.0,Y,SK에너지,양천구,37.5282624685753,126.832956410977,6.183697061150745
185,형산석유(주)원주유소,서울 양천구 남부순환로 408,1325.0,N,현대오일뱅크,양천구,37.5311594818326,126.831011469112,6.336313599089916
186,신월주유소,서울 양천구 신월로 193 (신월동),1328.0,Y,GS칼텍스,양천구,37.5200481885681,126.844071320155,5.376391005192722
187,지에스이앤알 직영 서울주유소,서울 양천구 신정로 236 (신정동),1335.0,N,GS칼텍스,양천구,37.5105676390045,126.847718788496,5.459856769213124
188,(주)블루에너지,서울 양천구 중앙로 226 (신정동),1335.0,Y,SK에너지,양천구,37.5167468205193,126.854738127061,4.607458734133618
189,지에스칼텍스㈜ 서호주유소,서울 양천구 남부순환로 317,1339.0,Y,GS칼텍스,양천구,37.5385828916235,126.82701689593,6.7146283603889625
190,양천구주유소,서울 양천구 국회대로 275 (목동),1347.0,Y,알뜰주유소,양천구,37.5303725461437,126.865511835584,3.3033310937433478
191,가로공원주유소,서울 양천구 가로공원로 165 (신월동),1359.0,N,SK에너지,양천구,37.5370203692233,126.834298807985,6.060219652839915
192,지에스칼텍스㈜ 건지주유소,서울 양천구 안양천로 1171 (목동),1365.0,Y,GS칼텍스,양천구,37.545315926725,126.882152598122,2.285081038228524
193,현대오일뱅크(주)직영 남부순환셀프주유소,서울 양천구 남부순환로 553 (신월동),1369.0,Y,현대오일뱅크,양천구,37.5197288998681,126.838723252685,5.841151735034255
194,(주)삼표에너지 목동주유소,서울 양천구 목동서로 129 (목동),1375.0,N,GS칼텍스,양천구,37.5321638279811,126.875540347599,2.4082292322678565
195,목동주유소,서울 양천구 목동중앙로 125 (목동),1375.0,Y,SK에너지,양천구,37.5396005386844,126.874552753564,2.601612539572835
196,현대오일뱅크㈜직영 목동셀프주유소,서울 양천구 공항대로 648 (목동),1378.0,Y,현대오일뱅크,양천구,37.5467672087448,126.87698319379,2.7499111876643694
197,신정동주유소,서울 양천구 안양천로 663 (신정동),1378.0,Y,현대오일뱅크,양천구,37.5063816783679,126.871124793176,4.066460043436698
198,현대오일뱅크(주) 양천주유소,서울 양천구 안양천로 1179 (목동),1379.0,N,현대오일뱅크,양천구,37.5458594189461,126.88144235004,2.371492762051758
199,현대오일뱅크(주)직영 양천셀프주유소,서울 양천구 목동로 17 (신정동),1389.0,Y,현대오일뱅크,양천구,37.5104731119583,126.871265587745,3.7399439051030403
200,SK에너지(주) 신평,서울 양천구 목동남로 62 (신정동),1394.0,N,SK에너지,양천구,37.5093947016961,126.866239301006,4.155155858841527
201,양정주유소,서울 양천구 국회대로 158 (신정동),1395.0,N,현대오일뱅크,양천구,37.5280498776111,126.852547021219,4.467452583309212
202,대농self주유소,서울 양천구 중앙로 331 (신월동),1397.0,Y,SK에너지,양천구,37.5254885041362,126.849753276346,4.753391251927026
203,SK에너지(주) 경인주유소,서울 양천구 국회대로 170 (신정동),1399.0,Y,SK에너지,양천구,37.5281136827651,126.854009012994,4.338632563334176
204,(주)서부트럭터미날,서울 양천구 신정로 167 (신정동),1399.0,N,현대오일뱅크,양천구,37.5093449690455,126.841883881962,5.981007948111481
205,현대오일뱅크(주)직영 신목동셀프주유소,서울 양천구 목동동로10길 13,1399.0,Y,현대오일뱅크,양천구,37.5194893296515,126.871071371587,3.1748663386986786
206,신양주유소,서울 양천구 지양로 67,1459.0,N,SK에너지,양천구,37.5215294915741,126.833868932502,6.212416674768579
207,현대오일뱅크㈜직영 코리아주유소,서울 양천구 신목로7길 1,1599.0,N,현대오일뱅크,양천구,37.5195983978225,126.871942653616,3.1014721118462525
208,평화주유소,서울 양천구 안양천로 657 (신정동),1677.0,N,SK에너지,양천구,37.5058610602272,126.870696366659,4.134497545123108
209,행촌주유소,서울 영등포구 도신로 130 (신길동),1319.0,N,SK에너지,영등포구,37.508496518797,126.905985305925,2.7311967756816493
210,(주)강서오일,서울 영등포구 도신로 151,1319.0,N,현대오일뱅크,영등포구,37.5100148716917,126.908251942382,2.5925973070560344
211,매봉주유소,서울 영등포구 도신로 248 (신길동),1329.0,Y,현대오일뱅크,영등포구,37.5130406356457,126.918333173452,2.6000195513085083
212,(주)MS주유소,서울 영등포구 대림로 230,1329.0,N,현대오일뱅크,영등포구,37.5013096818947,126.897465178935,3.5479013354967717
213,(주)대청에너지 대청주유소,서울 영등포구 가마산로 328 (대림동),1329.0,N,GS칼텍스,영등포구,37.4985849503891,126.895817488746,3.8689513145912624
214,도림주유소,서울 영등포구 도림로 343 (도림동),1329.0,Y,알뜰주유소,영등포구,37.5077698456731,126.90025684474,2.807039502607902
215,지에스칼텍스㈜ 신길주유소,서울 영등포구 신길로 74 (신길동),1339.0,Y,GS칼텍스,영등포구,37.4990627621518,126.908792674047,3.8024996120381847
216,㈜지에스이앤알 모드니주유소,서울 영등포구 경인로 789,1359.0,N,GS칼텍스,영등포구,37.5146713027948,126.900727819773,2.0388926676349417
217,보라주유소,서울 영등포구 영등포로 399 (신길동),1368.0,N,GS칼텍스,영등포구,37.5135821203562,126.922724761096,2.775989545989248
218,지에스칼텍스㈜ 화일주유소,서울 영등포구 도림로 415,1369.0,Y,GS칼텍스,영등포구,37.5132569564825,126.89648174992,2.2582706237264913
219,남서울고속주유소,서울 영등포구 가마산로 367 (대림동),1369.0,Y,SK에너지,영등포구,37.5016177485726,126.898733536976,3.500636395597191
220,현대오일뱅크㈜직영 영등포제일셀프주유소,서울 영등포구 가마산로 379,1387.0,Y,현대오일뱅크,영등포구,37.5024020673961,126.899464416873,3.4076766553406856
221,한경석유(주)경덕주유소,서울 영등포구 여의대방로23길 2 (신길동),1388.0,Y,SK에너지,영등포구,37.4983819172602,126.919783311181,4.122316411074086
222,한일주유소,서울 영등포구 도림로 486 (문래동3가),1390.0,N,SK에너지,영등포구,37.5169858880877,126.889850537106,2.110608519415223
223,씨앤에스유통 한성주유소,서울 영등포구 여의대방로 227,1395.0,N,S-OIL,영등포구,37.5072579156295,126.922915747543,3.3595045862817057
224,SK에너지(주) 기린주유소,서울 영등포구 선유로 270,1398.0,Y,SK에너지,영등포구,37.5363321621978,126.898774299929,0.520724098188435
225,(주)한미석유 제2한강주유소,서울 영등포구 선유로 260 (양평동4가),1398.0,Y,GS칼텍스,영등포구,37.5355248902398,126.897964946369,0.5172117575134227
226,SK에너지(주) 신길동주유소,서울 영등포구 영등포로 348 (신길동),1399.0,N,SK에너지,영등포구,37.5152502056697,126.916966967146,2.327819747485719
227,현대오일뱅크(주)직영 영등포현대셀프,서울 영등포구 경인로 822 (영등포동),1399.0,Y,현대오일뱅크,영등포구,37.5153291566595,126.904480819754,1.962644668825649
228,현대오일뱅크㈜직영 선유로셀프주유소,서울 영등포구 선유로 114(양평동1가),1399.0,Y,현대오일뱅크,영등포구,37.5240428392085,126.890852073427,1.4468067698236318
229,현대오일뱅크㈜직영 대일셀프주유소,서울 영등포구 영등포로 168,1399.0,Y,현대오일뱅크,영등포구,37.5204746288886,126.900045594323,1.4067710214352083
230,선유도주유소,서울 영등포구 양평로 141 (양평동5가),1405.0,Y,S-OIL,영등포구,37.5385291634597,126.892062687689,1.1355638663718377
231,SK에너지(주) 양평주유소,서울 영등포구 선유로 195 (양평동3가),1418.0,Y,SK에너지,영등포구,37.5310482968462,126.893506681257,0.8487094977788129
232,대영주유소,서울 영등포구 국회대로 632 (영등포동7가),1430.0,Y,GS칼텍스,영등포구,37.5254593729155,126.904113701423,0.8384622247817355
233,sk여명주유소,서울 영등포구 국회대로62길 7 (여의도동),1688.0,N,SK에너지,영등포구,37.5276117400513,126.916270633251,1.3242947107875227
235,버드나룻길주유소,서울 영등포구 버드나루로 111 (당산동),1890.0,N,SK에너지,영등포구,37.5279744482943,126.907873245851,0.7079876444148812
236,현대오일뱅크㈜직영 여의도현대주유소,서울 영등포구 의사당대로 154 (여의도동),1919.0,N,현대오일뱅크,영등포구,37.5176801059507,126.927478884592,2.7566991463872563
237,지에스칼텍스(주) 국회대로주유소,서울 영등포구 국회대로 746 (여의도동),1919.0,N,GS칼텍스,영등포구,37.5279887278673,126.916029127951,1.286819319012154
238,KH여의도주유소,서울 영등포구 국회대로 794 (여의도동),1929.0,N,SK에너지,영등포구,37.5307392906414,126.920299416937,1.5592535286825981
239,SJ오일(주) 여의도주유소,서울 영등포구 은행로 64,1939.0,N,GS칼텍스,영등포구,37.5303763828993,126.925570104479,2.0248844205706105
240,수유동주유소,서울 강북구 도봉로 395 (수유동),1317.0,Y,GS칼텍스,강북구,37.6422269311156,127.029534049186,16.502516076431522
241,북서울고속주유소,서울 강북구 삼양로 410 (수유동),1317.0,Y,S-OIL,강북구,37.6402370196363,127.017250207497,15.620849354342383
242,(주)석산에너지,서울 강북구 삼양로 316 (수유동),1317.0,Y,현대오일뱅크,강북구,37.6316886416458,127.017918788236,14.94771621051966
243,KH에너지(주)직영 송정주유소,서울 강북구 인수봉로 185 (수유동),1347.0,N,SK에너지,강북구,37.6361915368149,127.012766274186,15.022420007207305
244,대성석유(주)신광주유소,서울 강북구 삼양로 484,1349.0,N,GS칼텍스,강북구,37.6464495651764,127.015372603028,16.05168398411089
245,㈜지에스이앤알 미아주유소,서울 강북구 도봉로 122 (미아동),1352.0,Y,GS칼텍스,강북구,37.6198983593919,127.02907145076,14.740347834261744
246,SK에너지(주) 매일주유소,서울 강북구 삼양로 217 (미아동),1357.0,Y,SK에너지,강북구,37.6227653570793,127.019086440546,14.30863054013188
247,(주)마봉직영 덕릉로주유소,서울 강북구 덕릉로 158 (번동),1359.0,N,S-OIL,강북구,37.635016251642,127.031309683046,16.031768075464303
248,에덴주유소,서울 강북구 월계로 195 (번동),1369.0,Y,SK에너지,강북구,37.621613569637,127.045589558796,15.984583612592061
249,세원주유소,서울 강북구 한천로 918 (번동),1379.0,Y,SK에너지,강북구,37.6342699682231,127.037763773459,16.381156891976712
250,현대오일뱅크(주)직영 미아셀프주유소,서울 강북구 도봉로 200 (미아동),1387.0,Y,현대오일뱅크,강북구,37.6265260054647,127.026459618797,15.066366863354656
251,현대오일뱅크㈜직영 새한셀프주유소,서울 강북구 도봉로 75,1387.0,Y,현대오일뱅크,강북구,37.6157681913959,127.029589614498,14.478657518184274
252,현대오일뱅크(주)직영 번동셀프주유소,서울 강북구 한천로 963 (번동),1387.0,Y,현대오일뱅크,강북구,37.635563621624,127.032887089001,16.173082907985705
253,현대오일뱅크㈜직영 강변현대주유소,서울 용산구 원효로 9 (청암동),1589.0,N,현대오일뱅크,용산구,37.5347144223748,126.945724077622,3.7871101465063046
254,(주)한독모터스용산뉴타운주유소,서울 용산구 한강대로 48 (한강로3가),1638.0,N,GS칼텍스,용산구,37.5250094846045,126.964503349249,5.5090473233365636
255,(주)영원 풍기주유소,서울 용산구 원효로 178 (원효로2가),1690.0,N,GS칼텍스,용산구,37.5355890312127,126.962708973419,5.287827315325832
256,수림석유 제3한강주유소,서울 용산구 한남대로 45 (한남동),1718.0,N,GS칼텍스,용산구,37.5328793337278,127.007511314705,9.230244807493657
257,한석주유소,서울 용산구 이촌로 164,1778.0,N,SK에너지,용산구,37.5215921464571,126.965360511446,5.656204406552066
258,(주)남경주유소,서울 용산구 녹사평대로11길 24,1799.0,N,SK에너지,용산구,37.5222568335822,126.993181838109,8.055192792993386
259,(주)신태성주유소,서울 용산구 원효로 147 (원효로3가),1825.0,N,SK에너지,용산구,37.5347149768812,126.959447976925,4.9959869775367896
260,현대오일뱅크(주)직영 소월길주유소,서울 용산구 소월로 66 (후암동),1833.0,N,현대오일뱅크,용산구,37.5544085670544,126.977734582566,7.022204750258097
261,현대오일뱅크㈜직영 갈월동주유소,서울 용산구 한강대로 322 (갈월동),1913.0,N,현대오일뱅크,용산구,37.5470289447515,126.972228457829,6.316110215952995
262,현대오일뱅크㈜직영 한남동주유소,서울 용산구 한남대로 204 (한남동),1918.0,N,현대오일뱅크,용산구,37.5460727912721,127.002896422503,8.942727050690229
263,동자동주유소,서울 용산구 한강대로104길 6 (동자동),1990.0,N,SK에너지,용산구,37.5502187180198,126.972475333033,6.433994511826812
264,에너비스,서울 용산구 한남대로 82 (한남동),1998.0,N,SK에너지,용산구,37.5360397637014,127.006137723817,9.115485215850272
265,한남지점,서울 용산구 한남대로21길 4 (한남동),1998.0,N,SK에너지,용산구,37.534722862601,127.006107972676,9.108565352550523
266,서계주유소,서울 용산구 청파로 367 (서계동),2089.0,N,GS칼텍스,용산구,37.5523662854224,126.968993700509,6.220530117936121
267,(주)명연에너지 수색훼미리주유소,서울 은평구 수색로 236 (수색동),1315.0,Y,현대오일뱅크,은평구,37.5811692862968,126.897845401184,5.38183006633187
268,타이거주유소,서울 은평구 수색로 188 (증산동),1315.0,Y,SK에너지,은평구,37.5785521168108,126.902034060396,5.07330806856037
269,지에스칼텍스(주)수색뉴타운주유소,서울 은평구 수색로 350 (수색동),1336.0,Y,GS칼텍스,은평구,37.5872268663294,126.887564092289,6.185625281044304
270,지에스칼텍스㈜ 서부주유소,서울 은평구 응암로 210 (응암동),1345.0,Y,GS칼텍스,은평구,37.590582961927,126.9176973333,6.5430907259162465
271,지에스칼텍스㈜ 신사제일주유소,서울 은평구 증산로 423 (신사동),1345.0,Y,GS칼텍스,은평구,37.594096038824,126.913935526396,6.871254937539464
272,불광주유소,서울 은평구 연서로 314 (불광동),1357.0,N,현대오일뱅크,은평구,37.623209991003,126.927945702304,10.27957884012124
273,다회주유소,서울 은평구 증산로 441 (신사동),1359.0,Y,S-OIL,은평구,37.5956135535263,126.914396679791,7.044080858354828
274,대성산업㈜ 대성주유소,서울 은평구 통일로 642,1369.0,Y,GS칼텍스,은평구,37.6040033229848,126.935207500802,8.402169083023885
275,제이제이에너지,서울 은평구 응암로 163,1375.0,Y,SK에너지,은평구,37.5867583146722,126.915872690304,6.0946539484257665
276,뉴타운셀프주유소,서울특별시 은평구  통일로 1031,1385.0,Y,S-OIL,은평구,37.6346304765514,126.916643637664,11.373739447002256
277,박석고개주유소,서울 은평구 통일로 945 (갈현동),1388.0,Y,SK에너지,은평구,37.6272854815736,126.919398367026,10.592782765451997
278,은평뉴타운주유소,서울 은평구 통일로 924 (불광동),1388.0,Y,SK에너지,은평구,37.625331136968,126.920305351576,10.389132108982446
279,성원이앤에스(주)은평지점,서울 은평구 통일로 968 (진관동),1393.0,N,GS칼텍스,은평구,37.6292162125585,126.919673603924,10.808763501490828
280,지에스칼텍스㈜ 녹번주유소,서울 은평구 통일로 600 (녹번동),1395.0,N,GS칼텍스,은평구,37.6006171747248,126.936280685005,8.083074514134003
281,현대오일뱅크㈜직영 은평드림주유소,서울 은평구 통일로 1151 (진관동),1415.0,N,현대오일뱅크,은평구,37.6439690516064,126.912361511051,12.37536561442968
282,코끼리주유소,서울 은평구 서오릉로 41 (녹번동),1418.0,N,자가상표,은평구,37.6043960943468,126.9242140035,8.166899906519117
283,안풍주유소,서울 종로구 자하문로 303 (홍지동),1420.0,N,S-OIL,종로구,37.5992096931325,126.959167834981,8.886377363950965
284,자하문주유소,서울 종로구 자하문로 248 (부암동),1425.0,Y,SK에너지,종로구,37.5963008098912,126.964348123069,8.890917159383893
285,㈜지에스이앤알 평창주유소,서울 종로구 평창문화로 135 (평창동),1430.0,N,현대오일뱅크,종로구,37.609738479959,126.974559174167,10.625478326624236
286,구도일주유소특종,서울 종로구 평창문화로 90 (평창동),1498.0,N,S-OIL,종로구,37.6067119673896,126.971046593297,10.170995165177576
287,SK북악주유소,서울 종로구 평창문화로 137,1888.0,N,SK에너지,종로구,37.6098529710689,126.974864699167,10.651736839596404
288,현대오일뱅크㈜직영 재동주유소,서울 종로구 율곡로 58 (경운동),1918.0,N,현대오일뱅크,종로구,37.5763469069387,126.985811114051,8.764108054775663
289,경복궁주유소,서울 종로구 율곡로 6 (중학동),1980.0,N,GS칼텍스,종로구,37.5754538625026,126.979775832051,8.26807998175306
290,(주)중앙에너비스 혜화주유소,서울 종로구 창경궁로35길 1,1998.0,N,SK에너지,종로구,37.5860654223146,127.00107864406,10.483413532750205
291,(주)대양씨앤씨 사직주유소,서울 종로구 사직로 65 (사직동),1998.0,N,GS칼텍스,종로구,37.5745415909136,126.966616657335,7.281633755602197
292,세화주유소,서울 중구 왕십리로 403,1468.0,N,알뜰주유소,중구,37.5646782009732,127.025483219811,11.374329543719744
293,현대오일뱅크 장원주유소,서울 중구 동호로 203 (신당동),1648.0,N,현대오일뱅크,중구,37.5560376839411,127.009276893403,9.729836376042295
294,화성주유소,서울 중구 다산로 233,1758.0,N,S-OIL,중구,37.5639389290407,127.015691795633,10.529993896743349
295,장충주유소,서울 중구 장충단로 202 (장충동1가),1758.0,N,SK에너지,중구,37.5627543213087,127.007033732048,9.766523218830168
296,신당동주유소,서울 중구 다산로 242 (신당동),1798.0,N,SK에너지,중구,37.5646079893536,127.016496017941,10.6214073466335
297,지에스칼텍스(주)초동주유소,서울 중구 마른내로 31,1848.0,N,GS칼텍스,중구,37.5651729469873,126.991464827179,8.596828447326466
298,SK에너지(주) 통일주유소,서울 중구 동호로 296 (장충동2가),1879.0,N,SK에너지,중구,37.5608455398186,127.003413894299,9.394839291454552
299,약수주유소,서울 중구 다산로 173,1986.0,N,GS칼텍스,중구,37.5590367888841,127.012667988504,10.108987514154641
300,SK에너지(주) 퇴계로주유소,서울 중구 퇴계로 228 (필동2가),2099.0,N,SK에너지,중구,37.5617086193411,126.997140662184,8.908693719260329
301,필동주유소,서울 중구  퇴계로 196 (필동2가),2109.0,N,GS칼텍스,중구,37.5608896587695,126.993676318183,8.591023065459602
302,에스씨(주) 역전주유소,서울 중구 퇴계로 15,2138.0,N,GS칼텍스,중구,37.5570465768548,126.974511796533,6.864772464619079
303,서남주유소,서울 중구 통일로 30,2231.0,N,SK에너지,중구,37.5583842097102,126.972171955834,6.736434643469853
304,(주)자연에너지 대창주유소,서울 중랑구 동일로 636 (면목동),1327.0,N,현대오일뱅크,중랑구,37.5872153637863,127.080281126703,16.765538588916968
305,구도일주유소 동천,서울 중랑구 동일로 654 (면목동),1327.0,Y,S-OIL,중랑구,37.5891088122,127.080262213877,16.840753060073137
306,오천만주유소,서울 중랑구 동일로 547 (면목동),1327.0,Y,S-OIL,중랑구,37.5790482325494,127.079331136967,16.38165700751714
307,대양주유소,서울 중랑구 봉우재로 105 (상봉동),1327.0,N,GS칼텍스,중랑구,37.592617388835,127.084739909459,17.352988561153932
308,우림주유소,서울 중랑구 용마산로 487 (망우동),1327.0,Y,GS칼텍스,중랑구,37.5946340255077,127.09936381383,18.631716958656828
309,면목SELF주유소,서울 중랑구 동일로 627 (면목동),1327.0,Y,SK에너지,중랑구,37.5862835429022,127.07950354997,16.66453691771668
310,지에스칼텍스㈜ 대원주유소,서울 중랑구 동일로 600,1328.0,Y,GS칼텍스,중랑구,37.5840676299598,127.080185927591,16.6351509891562
311,망우주유소(self),서울 중랑구 망우로 311 (상봉동),1369.0,Y,GS칼텍스,중랑구,37.5971816137633,127.087236741383,17.754153030845128
312,(주)태영 구도일주유소 한인,서울 중랑구 망우로 170 (상봉동),1369.0,Y,S-OIL,중랑구,37.5923859402544,127.071808414351,16.2952202329874
313,신내주유소,서울 중랑구 용마산로 705 (신내동),1373.0,Y,SK에너지,중랑구,37.6141617433809,127.100926646741,19.656121397730466
314,(주)기지에너지,서울 중랑구 용마산로 716 (신내동),1375.0,N,S-OIL,중랑구,37.6147730910019,127.101943330314,19.766884477857005
315,용마로주유소,서울 중랑구 용마산로 309 (면목동),1375.0,Y,SK에너지,중랑구,37.5798851664084,127.092225320245,17.492251079559324
316,재원에너지㈜ 범아주유소,서울 중랑구 동일로 881 (묵동),1388.0,N,S-OIL,중랑구,37.6092287067076,127.077627212682,17.58668913083215
317,지에스칼텍스㈜ 소망주유소,서울 중랑구 망우로 475,1398.0,Y,GS칼텍스,중랑구,37.6008711716752,127.104840681823,19.340879554439354
318,신일셀프주유소,서울 중랑구 상봉로 58 (망우동),1399.0,Y,SK에너지,중랑구,37.5910104856682,127.093887634038,18.036040288913515
319,현대오일뱅크㈜직영 중랑교셀프주유소,서울 중랑구 망우로 229 (중화동),1418.0,Y,현대오일뱅크,중랑구,37.594695124572,127.0780033321,16.89826019501292
320,강서오곡셀프주유소,서울 강서구 벌말로 254 (오곡동),1297.0,Y,SK에너지,강서구,37.5539472043373,126.768359086323,12.084177531359586
321,뉴신정주유소,서울 강서구 곰달래로 207(화곡동),1308.0,N,알뜰주유소,강서구,37.5315624983884,126.856035365887,4.129459663087495
322,화곡역주유소,서울특별시 강서구  강서로 154 (화곡동),1308.0,Y,알뜰주유소,강서구,37.5407680113225,126.8414715329,5.480267069726455
323,방화주유소,서울 강서구 방화동로 58-2 (방화동),1313.0,N,SK에너지,강서구,37.5655628801505,126.812436402704,8.756500327030112
324,스카이주유소,서울 강서구 개화동로 457 (방화동),1315.0,Y,S-OIL,강서구,37.5715221982948,126.804525932214,9.670563818797627
325,행촌에너지 공항주유소,서울 강서구 개화동로 420 (개화동),1316.0,Y,현대오일뱅크,강서구,37.5743411065587,126.802289394945,9.988063784038161
326,유턴주유소,서울 강서구 남부순환로 57,1317.0,Y,알뜰주유소,강서구,37.5572480682887,126.810028716951,8.617263462048648
327,개화주유소,서울 강서구 양천로 57,1337.0,Y,SK에너지,강서구,37.5735472850738,126.810053543861,9.34305364468545
328,KH에너지(주)직영 KH외발산주유소,서울 강서구 방화대로 30,1339.0,Y,SK에너지,강서구,37.5430075646362,126.817064474252,7.645033031808038
329,(주)한진 김포공항주유소,서울 강서구 하늘길 259,1344.0,Y,S-OIL,강서구,37.5509423302466,126.814720192147,8.02276588945977
330,목화주유소,서울 강서구 국회대로 251 (화곡동),1356.0,Y,SK에너지,강서구,37.5300548363879,126.862833597877,3.541700757325902
331,현대오일뱅크 등촌주유소,서울 강서구 등촌로 189 (등촌동),1357.0,N,현대오일뱅크,강서구,37.5468598193199,126.862514592122,3.8776902122458363
332,강서열린점,서울 강서구 등촌로 213 (등촌동),1367.0,N,GS칼텍스,강서구,37.5487350773536,126.862988809415,3.928107429486123
333,현대오일뱅크㈜직영 강서제일셀프주유소,서울 강서구 화곡로 273 (화곡동),1367.0,Y,현대오일뱅크,강서구,37.5492791514446,126.846964931559,5.250601267356706
334,지에스칼텍스㈜ 경인고속주유소,서울 강서구 국회대로 225 (화곡동),1386.0,Y,GS칼텍스,강서구,37.5296452344476,126.859834931985,3.8092260100002795
335,화곡현대주유소,서울 강서구 강서로 151 (화곡동),1387.0,Y,SK에너지,강서구,37.5402424056989,126.841163971808,5.4981162120128895
336,대성석유(주)방화대성주유소,서울 강서구 양천로 176,1395.0,Y,GS칼텍스,강서구,37.5728980859386,126.823440027913,8.290672304164492
337,우장산주유소,서울 강서구 강서로 292 (내발산동),1395.0,N,SK에너지,강서구,37.5518027646586,126.836681312113,6.198484287219759
338,대성석유(주)직영관문주유소,서울 강서구 공항대로 314,1395.0,N,GS칼텍스,강서구,37.5578424333244,126.842395220012,6.005472162763108
339,대성석유(주) 마곡대성주유소,서울 강서구 강서로 457,1395.0,Y,GS칼텍스,강서구,37.5662430987764,126.840421267348,6.632854711463051
340,하이웨이주유소,서울특별시 강서구 공항대로 432(화곡동),1397.0,Y,S-OIL,강서구,37.5545398850186,126.854951579164,4.85746745056481
341,신화곡주유소,서울 강서구 국회대로 71,1398.0,Y,S-OIL,강서구,37.5273198541745,126.8428791732,5.32359487770427
342,현대오일뱅크㈜직영 에어포트주유소,서울 강서구 개화동로 519 (방화동),1409.0,N,현대오일뱅크,강서구,37.5662928029771,126.806040491926,9.304634615351755
343,세원제1주유소,서울 강서구 양천로 311 (가양동),1410.0,Y,SK에너지,강서구,37.5704960243117,126.83807594146,7.073750674842814
344,현대오일뱅크 양화교주유소,서울 강서구 공항대로 653 (염창동),1414.0,N,현대오일뱅크,강서구,37.5473388138282,126.877427656269,2.753993483779349
345,KH에너지(주)직영 가양주유소,서울 강서구 강서로 498 (가양동),1415.0,N,SK에너지,강서구,37.5697365483757,126.841978506958,6.747606175588252
346,대성주유소,서울 강서구 강서로 472 (등촌동),1415.0,N,GS칼텍스,강서구,37.5674698231778,126.841438957955,6.636577944727545
347,현대오일뱅크(주) 가양주유소,서울 강서구  양천로 391 (가양동),1419.0,N,현대오일뱅크,강서구,37.5664417853887,126.845859277681,6.254046596486225
348,(주)한진 김포공항제2주유소,서울 강서구 하늘길 112,1454.0,Y,S-OIL,강서구,37.5587841523495,126.803355336745,9.229435615412433
349,박물관주유소,서울 강서구 양천로53길 97 (가양동),1455.0,N,GS칼텍스,강서구,37.5674992334083,126.850301675636,6.018478257059322
350,코리나(주)청룡주유소,서울 강서구 양천로 576 (등촌동),1478.0,N,SK에너지,강서구,37.5567244681338,126.862735949013,4.415582877719801
351,참솔에너지,서울 강서구 벌말로 281 (오곡동),1535.0,Y,S-OIL,강서구,37.5562780183645,126.768373374743,12.135549926479337
352,염창동주유소,서울 강서구 양천로 720 (염창동),1688.0,N,SK에너지,강서구,37.5492177273409,126.875677103073,3.002118878429539
353,유림주유소,서울 관악구 신림로 176 (신림동),1373.0,N,S-OIL,관악구,37.4737677035222,126.934825612186,7.1584429321018765
354,(주)연우에너지 신관주유소,서울 관악구 신림로 290 (신림동) 신관주유소,1374.0,Y,GS칼텍스,관악구,37.4804197429151,126.930668720985,6.334233049104272
355,(주)엠오티이엔지 직영 삼화주유소,서울 관악구 보라매로 41 (봉천동),1379.0,N,알뜰주유소,관악구,37.4932228170481,126.926674571544,4.890524863167183
356,현대주유소,서울 관악구 난곡로 108 (신림동),1399.0,N,현대오일뱅크,관악구,37.464972344929,126.919665854693,7.701199307425577
357,대양석유(주)직영 보라매주유소,서울 관악구  보라매로 26 (봉천동),1399.0,Y,SK에너지,관악구,37.4915977369262,126.927219042514,5.074444133705674
358,지에스칼텍스㈜ 난곡주유소,서울 관악구 난곡로 206,1399.0,N,GS칼텍스,관악구,37.4734402319402,126.918756804906,6.762583230199874
359,SK에너지(주)직영 대공원주유소,서울 관악구 과천대로 921 (남현동),1409.0,N,SK에너지,관악구,37.4726569973301,126.982228902725,9.693887655498834
360,현대오일뱅크(주)직영 관악셀프주유소,서울 관악구 남부순환로 1520 (신림동),1419.0,Y,현대오일뱅크,관악구,37.4824162018976,126.919452148531,5.805140753183109
361,남현주유소,서울 관악구 남부순환로 2014 (남현동),1429.0,Y,현대오일뱅크,관악구,37.475528184975,126.972502409209,8.860592214456592
362,서일석유(주)락성주유소,서울 관악구 남부순환로 1920 (봉천동),1429.0,Y,GS칼텍스,관악구,37.477221910042,126.962389897985,8.122324990342362
363,관악시몬주유소,서울특별시 관악구 남부순환로 1753 (봉천동),1437.0,N,S-OIL,관악구,37.4823319566643,126.945066314768,6.747855887572707
364,SK에너지(주) 신봉천,서울 관악구 남부순환로 1880 (봉천동),1439.0,N,SK에너지,관악구,37.4787976983741,126.958396590223,7.762376616508182
365,(주)한유에너지행운셀프주유소,서울 관악구 남부순환로 1883 (봉천동),1465.0,Y,SK에너지,관악구,37.4790967425593,126.959169176582,7.779964981723152
366,문성골주유소,서울 관악구 문성로 97 (신림동),1468.0,N,현대오일뱅크,관악구,37.4778696458556,126.914362940913,6.206463293094851
367,한규상사 유정주유소,서울 관악구 남부순환로 1691 (봉천동),1477.0,N,SK에너지,관악구,37.4840791341119,126.938545220549,6.279346138653024
368,CJ대한통운㈜ 신림주유소,서울 관악구 남부순환로 1515 (신림동),1494.0,N,GS칼텍스,관악구,37.4830223505096,126.918852484767,5.7266681621676145
369,태양주유소,서울 광진구 동일로 345 (중곡동),1325.0,N,GS칼텍스,광진구,37.5618603966711,127.074779022864,15.496383514749379
370,정해네트웍스(주)일진주유소,서울 광진구 동일로 413 (중곡동),1327.0,Y,S-OIL,광진구,37.5674520086168,127.077935863493,15.906662131235283
371,평안주유소,서울 광진구 천호대로 630 (능동),1347.0,N,알뜰주유소,광진구,37.5538226588761,127.087176329299,16.417845223845543
372,현대오일뱅크(주)직영 능동주유소,서울 광진구 천호대로 584 (능동),1352.0,Y,현대오일뱅크,광진구,37.5556380138307,127.082501657519,16.040294739612307
373,대원주유소,서울 광진구 용마산로 122 (중곡동),1375.0,N,S-OIL,광진구,37.56455803366,127.08705708781,16.61737277763691
374,용마주유소,서울 광진구 용마산로 68 (중곡동),1375.0,N,GS칼텍스,광진구,37.5597341174273,127.087883799213,16.58438924882079
375,현대오일뱅크(주)직영 중곡현대주유소,서울 광진구 동일로 435 (중곡동),1376.0,N,현대오일뱅크,광진구,37.5693030877256,127.079044153204,16.051929205658087
376,현대오일뱅크(주) 중원주유소,서울 광진구 동일로 398 (중곡동),1376.0,N,현대오일뱅크,광진구,37.5658624220462,127.077738277087,15.84814785220094
377,(주)장수주유소,서울 광진구 동일로 266 (군자동),1387.0,N,SK에너지,광진구,37.5549838384561,127.071529641931,15.073839608012031
378,구의스타주유소,서울 광진구 자양로 103,1390.0,N,GS칼텍스,광진구,37.5369359088654,127.08311941502,15.903022837351317
379,현대오일뱅크㈜직영 장호셀프주유소,서울 광진구 자양로37 (자양동),1416.0,Y,현대오일뱅크,광진구,37.5313201772554,127.085854828263,16.139585883568923
380,삼호주유소,서울 광진구 천호대로 809 (광장동),1418.0,Y,S-OIL,광진구,37.545722198887,127.103717248078,17.768985146664235
381,강평주유소,서울 광진구 아차산로 616 (광장동),1418.0,N,SK에너지,광진구,37.5476463283278,127.107294912536,18.101287714939463
382,현대오일뱅크㈜직영 대명셀프주유소,서울 광진구 광나루로 460 (화양동),1418.0,Y,현대오일뱅크,광진구,37.5451191114666,127.080439646223,15.718171018601856
383,대성산업(주)구의주유소,서울 광진구 광나루로 570 (구의동),1419.0,N,GS칼텍스,광진구,37.5436295773236,127.092730802199,16.785732629097165
384,자양주유소,서울 광진구 아차산로 298 (자양동),1438.0,N,SK에너지,광진구,37.5381518083915,127.075893035565,15.27050977131258
385,동서울주유소,서울 광진구 강변역로 10 (구의동),1449.0,N,GS칼텍스,광진구,37.5377797280339,127.091368513784,16.632802691324855
386,처음처럼주유소,서울 구로구 오리로 1299 (궁동),1319.0,N,S-OIL,구로구,37.4973951468508,126.828965306109,7.6197819384649454
387,구인주유소,서울 구로구 경인로 558 (구로동),1324.0,N,SK에너지,구로구,37.5024357329953,126.879760475801,3.9547128528406916
388,항동주유소,서울 구로구 서해안로 2154 (항동),1329.0,Y,S-OIL,구로구,37.4834631961312,126.827816336243,8.6048093892246
389,(주)한미석유구로그린주유소,서울 구로구 구로중앙로 76 (구로동),1329.0,Y,GS칼텍스,구로구,37.4964219041881,126.888321429827,4.256669700038067
390,서울석유(주)풀페이주유소,서울 구로구 경인로 41 (온수동),1329.0,N,SK에너지,구로구,37.4909859722988,126.826705964775,8.175650252451938
391,신성주유소,서울 구로구 구로동로 187 (구로제2동),1329.0,Y,현대오일뱅크,구로구,37.4953107996815,126.882396091763,4.555074673058521
392,대성산업(주)디큐브주유소,서울 구로구 경인로 650 (신도림동),1329.0,N,GS칼텍스,구로구,37.5076984744714,126.886846193136,3.1401312381947872
393,근린공원주유소,서울 구로구 고척로 199 (고척동),1337.0,N,S-OIL,구로구,37.5051039732935,126.855483040622,5.1975188814787145
394,(주)새서울석유 대원셀프주유소,서울 구로구 개봉로 7,1348.0,Y,현대오일뱅크,구로구,37.4862064699178,126.856161567942,6.628855853578354
395,개봉주유소,서울 구로구 고척로 115 (개봉동),1359.0,Y,현대오일뱅크,구로구,37.5018938879983,126.846841845428,6.024756150527734
396,현대오일뱅크㈜직영 신오류주유소,서울 구로구 경인로 161 (오류동),1384.0,N,현대오일뱅크,구로구,37.4943918613082,126.839456803066,7.043565556837708
397,동선주유소,서울 구로구 경인로 150 (오류동),1387.0,N,GS칼텍스,구로구,37.4932767157175,126.838552971975,7.182481079500277
398,JHC에너지,서울 구로구 시흥대로 539 (구로동),1397.0,N,알뜰주유소,구로구,37.4815312323457,126.899783520855,5.721757722177663
399,시몬주유소,서울 구로구 부일로 871,1397.0,N,S-OIL,구로구,37.4929824565907,126.823986780003,8.252080083888528
400,영진주유소,서울 구로구 구로동로 20 (가리봉동),1397.0,N,S-OIL,구로구,37.4837072698183,126.887014444359,5.648533872496348
401,정은주유소,서울 구로구 경인로 407 (고척동),1397.0,N,현대오일뱅크,구로구,37.4982388531619,126.864686615996,5.118733011647768
402,SK에너지(주)직영 개봉동주유소,서울 구로구 경인로 290 (개봉동),1398.0,N,SK에너지,구로구,37.4976407488702,126.852335201255,5.936024450060503
403,SK구로주유소,서울 구로구 구일로 94 (구로동),1398.0,N,SK에너지,구로구,37.4937059471138,126.872179789099,5.131694749049673
404,현대오일뱅크(주)직영 금사주유소,부산 금정구 반송로 420 (금사동),1399.0,Y,현대오일뱅크,금정구,35.2142005379202,129.110165035945,324.83306265904514
405, 현대오일뱅크㈜직영 구로셀프주유소,서울 구로구 시흥대로 531,1408.0,Y,현대오일뱅크,구로구,37.480949072088,126.899231996072,5.788886598259716
406,현대오일뱅크(주)직영 신구로주유소,서울 구로구 가마산로 293 (구로동),1468.0,N,현대오일뱅크,구로구,37.4975533832572,126.892394002855,4.040172208090391
407,동아주유소,서울 구로구  도림로 91 (구로동),1598.0,N,S-OIL,구로구,37.4908381684642,126.89317436118,4.757456597103522
408,구로주유소,서울 구로구 구로동로 137 (구로동),1898.0,N,GS칼텍스,구로구,37.4910179935409,126.883528041948,4.961891116831799
409,구광주유소,서울특별시 금천구  서부샛길 674 (가산동),1335.0,N,S-OIL,금천구,37.4820092220592,126.875188296064,6.165066987511372
410,명보주유소,서울 금천구 시흥대로 377 (독산동),1364.0,N,알뜰주유소,금천구,37.4671504644835,126.897135879194,7.33174998886786
411,(주)진우에너지 백운주유소,서울 금천구 시흥대로 282 (독산동),1364.0,Y,GS칼텍스,금천구,37.4589135686193,126.899403873163,8.235961410582318
412,(주)태영유업 독산고개,서울 금천구 시흥대로 484,1374.0,Y,현대오일뱅크,금천구,37.4768277533578,126.899110569642,6.2470712588191155
413,현대오일뱅크(주)직영 금천현대셀프주유소,서울 금천구 독산로 147 (시흥동),1375.0,Y,현대오일뱅크,금천구,37.460504435971,126.904447065345,8.05476052557799
414,지에스칼텍스(주)일신주유소,서울 금천구 시흥대로 118,1375.0,Y,GS칼텍스,금천구,37.4444979001053,126.904287632312,9.83418776160648
415,대득에너지(금천셀프주유소),서울 금천구  시흥대로 81 (시흥동),1375.0,Y,GS칼텍스,금천구,37.4413113941798,126.903098285437,10.187701900796986
416,남서울경복에너지,서울 금천구 독산로 257 (독산동),1375.0,Y,S-OIL,금천구,37.469845191888,126.90243011308,7.014947791913505
417,백산주유소,서울특별시 금천구  시흥대로 174 (시흥동),1375.0,Y,S-OIL,금천구,37.4497187855494,126.902913626412,9.252817327852329
418,KH에너지(주)직영시흥대로주유소,서울 금천구 시흥대로 221 (시흥동),1385.0,N,SK에너지,금천구,37.4534458438663,126.900550432405,8.84068007922923
419,SK에너지(주) 박미주유소,서울 금천구 시흥대로 39-7 (시흥동),1405.0,N,SK에너지,금천구,37.4372089031842,126.902454192707,10.643904802520737
420,SK에너지(주) 이가주유소,서울 금천구 시흥대로 441,1420.0,N,SK에너지,금천구,37.4731511316389,126.897896050978,6.661510139878766
421,현대오일뱅크㈜직영 금천제일주유소,서울 금천구 남부순환로 1410 (독산동),1422.0,N,현대오일뱅크,금천구,37.4802057470935,126.9075034274,5.877264856237958
422,배꽃나라주유소,서울 노원구 화랑로 466 (공릉동),1345.0,Y,GS칼텍스,노원구,37.618596156319,127.079175483364,18.22753035809161
423,월계주유소,서울 노원구 월계로 252 (월계동),1369.0,Y,GS칼텍스,노원구,37.6244413704143,127.050757889236,16.53686590624871
424,삼육주유소,서울 노원구 화랑로 822 (공릉동),1370.0,Y,SK에너지,노원구,37.6386046072816,127.109024234645,21.637174213294575
425,태릉솔밭주유소,서울 노원구 노원로 49 (공릉동),1384.0,Y,S-OIL,노원구,37.6259562863554,127.085549633788,19.137749899214587
426,화랑대주유소,서울 노원구 화랑로 483,1398.0,Y,SK에너지,노원구,37.6195769270747,127.080835709226,18.409184373072137
427,성북역주유소,서울 노원구 광운로 95 (월계동),1398.0,N,GS칼텍스,노원구,37.6260132376987,127.059963771248,17.28757093119763
428,한신주유소,서울 노원구 동일로 1089 (공릉동),1398.0,N,SK에너지,노원구,37.6269756281327,127.071967647121,18.20707342394929
429,불암주유소,서울특별시 노원구  한글비석로 268 (중계동),1413.0,Y,S-OIL,노원구,37.6513310786557,127.077325621232,20.24086992774818
430,(주)소모에너지엔테크놀러지 수락산주유소,서울 노원구 동일로 1772,1419.0,Y,GS칼텍스,노원구,37.6866965763479,127.055858852259,21.77238503714232
431,신성주유소,서울 노원구 월계로 328 (월계동),1428.0,Y,S-OIL,노원구,37.628768841181,127.05737392402,17.29224406481862
432,현대오일뱅크㈜직영 하계주유소,서울 노원구 노원로17길 29 (하계동),1429.0,N,현대오일뱅크,노원구,37.6422159367552,127.07038916763,19.121726037277686
433,노원주유소,서울 노원구 동일로 1008 (공릉동),1439.0,N,GS칼텍스,노원구,37.6202556594805,127.07507975998,18.01940545492866
434,하계삼호주유소,서울 노원구 공릉로 294 (하계동),1470.0,N,GS칼텍스,노원구,37.6335890073283,127.072325002414,18.663820848068788
435,상계동주유소,서울 노원구 노원로26길 191 (상계동),1480.0,N,현대오일뱅크,노원구,37.6583847492925,127.071218588225,20.36379025695464
436,도봉제일주유소(주)송만에너지,서울 도봉구 도봉로 783 (도봉동),1325.0,N,현대오일뱅크,도봉구,37.6744735831616,127.044066665278,20.062607331471508
437,지에스칼텍스㈜ 도봉주유소,서울 도봉구 도봉로 895 (도봉동),1330.0,Y,GS칼텍스,도봉구,37.6843693792253,127.045522281038,21.012903188072265
438,한이에너지(주)KLP제1주유소,서울 도봉구 도봉로 596 (창동),1335.0,N,현대오일뱅크,도봉구,37.6577684862056,127.040593245003,18.439110920926886
439,삼미북부셀프주유소,서울 도봉구 도봉로 437 (쌍문동),1337.0,Y,SK에너지,도봉구,37.6449722642179,127.032158920343,16.883689963496106
440,정다운셀프주유소, 서울특별시 도봉구 도봉로 635 (쌍문동),1345.0,Y,SK에너지,도봉구,37.6611789816136,127.041600371636,18.78371531488713
441,극동유화(주)대안주유소,서울 도봉구 마들로 574 (창동),1345.0,Y,S-OIL,도봉구,37.6615142612008,127.047499715993,19.15386259415709
442,동일석유(주) 창동주유소,서울 도봉구  도봉로 434 (창동),1357.0,Y,SK에너지,도봉구,37.644630640363,127.03270797948,16.888440145513304
443,쌍문주유소,서울 도봉구 도봉로 547 (쌍문동),1359.0,Y,S-OIL,도봉구,37.6540051043115,127.037537600995,17.94722083999987
444,현대오일뱅크㈜직영 도봉현대셀프주유소,서울 도봉구 도봉로 941 (도봉동),1360.0,Y,현대오일뱅크,도봉구,37.6883740291887,127.045327229383,21.36111301692115
445,구도일주유소 도봉,서울 도봉구 도봉로 706 (방학동),1369.0,Y,S-OIL,도봉구,37.6674517132657,127.043562669797,19.428121398573076
446,서현주유소,서울 도봉구 방학로 142 (방학동),1369.0,Y,S-OIL,도봉구,37.6631054665765,127.036402243593,18.65453868528979
447,지에스칼텍스㈜ 방학동주유소,서울 도봉구 방학로 186,1369.0,Y,GS칼텍스,도봉구,37.6624797249011,127.031423782992,18.32629831799846
448,노원교주유소,서울 도봉구 마들로 776 (도봉동),1373.0,Y,현대오일뱅크,도봉구,37.679014779402,127.049750654086,20.769170617439702
449,대성산업(주)신창주유소,서울 도봉구 덕릉로 267 (창동),1387.0,N,GS칼텍스,도봉구,37.641453403829,127.040298160768,17.09760489497801
450,(주)쌍문셀프주유소,서울 도봉구 노해로 161 (쌍문동),1395.0,Y,현대오일뱅크,도봉구,37.6490837065592,127.026816404033,16.915853483475665
451,오복주유소,서울 도봉구 방학로 43,1418.0,Y,S-OIL,도봉구,37.6622801187124,127.047441496273,19.214070337760187
452,현대오일뱅크㈜직영 영신주유소,서울 도봉구 방학로 151,1419.0,N,현대오일뱅크,도봉구,37.6624183146713,127.035427675612,18.54113249344017
453,창동제일주유소,서울 도봉구 해등로3길 86 (창동),1557.0,N,S-OIL,도봉구,37.6468441893808,127.039445115121,17.473650204686457
454,(주)보성 세곡주유소,서울 강남구  헌릉로 731 (세곡동),1375.0,Y,SK에너지,강남구,37.4672717183911,127.118742598267,20.39814394799782
455,GS칼텍스(주)직영 산성주유소,서울 강남구 헌릉로 730 (세곡동),1385.0,Y,GS칼텍스,강남구,37.466556801977,127.119065437775,20.453375726206534
456,오일프러스 셀프,서울 강남구 남부순환로 2651 (도곡동),1394.0,Y,SK에너지,강남구,37.4858569015938,127.039563953841,13.147323422512903
457,방죽주유소,서울 강남구 밤고개로 215 (율현동),1399.0,Y,S-OIL,강남구,37.4749982222533,127.106869450908,19.116512820476036
458,현대오일뱅크 도곡셀프주유소,서울 강남구  남부순환로 2718 (도곡2동),1404.0,Y,현대오일뱅크,강남구,37.4854150814069,127.043319375098,13.471061042419311
459,지에스칼텍스㈜ 주성주유소,서울 강남구 영동대로 716,1405.0,N,GS칼텍스,강남구,37.521943936469,127.056680709065,13.621799077082363
460,지에스칼텍스㈜ GS타워주유소,서울 강남구 논현로 516 (역삼동),1415.0,N,GS칼텍스,강남구,37.5027340222428,127.036487434295,12.256596425862286
461,SK에너지(주) 매봉주유소,서울 강남구 언주로 307,1415.0,Y,SK에너지,강남구,37.4948857027485,127.045837976814,13.303583153738261
462,지에스칼텍스㈜ 은마주유소,서울 강남구 영동대로 235,1415.0,N,GS칼텍스,강남구,37.5000487098544,127.067184321895,14.949324105985008
463,SK서광주유소,서울 강남구 역삼로 142 (역삼동),1415.0,Y,SK에너지,강남구,37.4943841027679,127.035078677738,12.426701342842227
464,에쓰-오일㈜직영 개나리주유소,서울 강남구 언주로 423 (역삼동),1415.0,N,S-OIL,강남구,37.5008017584379,127.043077427217,12.87467375629919
465,역삼주유소,서울 강남구 역삼로 205 (역삼동),1415.0,N,GS칼텍스,강남구,37.4963803828852,127.039609197356,12.729764600434617
466,현대오일뱅크(주) 유진주유소,서울 강남구 논현로 152 (도곡동),1418.0,N,현대오일뱅크,강남구,37.4833598928005,127.04279289071,13.520059745205469
467,SK에너지㈜ 진달래주유소,서울 강남구 도곡로 208,1419.0,N,SK에너지,강남구,37.4922419642868,127.041968417985,13.079420986569328
468,(주)선진도곡주유소,서울 강남구 도곡로 162 (도곡동),1419.0,N,S-OIL,강남구,37.4910466850801,127.037701387421,12.774903076799752
469,(유)동하석유 힐탑셀프주유소,서울 강남구 논현로 640,1435.0,Y,SK에너지,강남구,37.5107346951545,127.032734745238,11.718954634093658
470,지에스칼텍스㈜ 삼성로주유소,서울 강남구 삼성로 563 (삼성동),1441.0,Y,GS칼텍스,강남구,37.5118848636563,127.053592956974,13.499896913992314
471,대동석유 압구정주유소,서울 강남구 언주로 842 (신사동),1453.0,Y,SK에너지,강남구,37.5253467761709,127.033802833889,11.579913035515661
472,현대오일뱅크㈜직영 삼성동주유소,서울 강남구 테헤란로 619 (삼성동),1461.0,N,현대오일뱅크,강남구,37.5099155151471,127.065115207351,14.53886561831251
473,현대오일뱅크㈜직영 오천주유소,서울 강남구 봉은사로 503 (삼성동),1461.0,N,현대오일뱅크,강남구,37.5135093706215,127.053798621427,13.487518001718021
474,자곡셀프주유소,서울 강남구 밤고개로 120 (자곡동),1468.0,Y,SK에너지,강남구,37.4835336870413,127.104011797711,18.575988701686054
475,(주)중앙에너비스 수서지점,서울 강남구 광평로 202 (수서동),1468.0,Y,SK에너지,강남구,37.4840308926021,127.094990086002,17.800327167256643
476,일원주유소,서울 강남구 양재대로55길 3 (일원동),1469.0,Y,S-OIL,강남구,37.4910581740806,127.087818878087,16.967522040022313
477,에스제이에너지산업(주) 개포주유소,서울 강남구 양재대로 339,1498.0,N,GS칼텍스,강남구,37.4723695996899,127.051706222102,14.758512343087773
479,대교주유소,서울 강남구 강남대로 640 (신사동),1550.0,N,SK에너지,강남구,37.5189616357236,127.019429526732,10.39879984036481
480,현대오일뱅크(주)직영 신사현대주유소,서울 강남구 도산대로 163 (신사동),1586.0,N,현대오일뱅크,강남구,37.5195029758336,127.026318277671,10.991473722014337
481,현대오일뱅크(주)직영 한양주유소,서울 강남구 압구정로 302 (신사동),1638.0,N,현대오일뱅크,강남구,37.5288083225857,127.034160991395,11.589547329104782
482,㈜새서울석유 새서울주유소,서울 강남구 압구정로 154,1657.0,N,현대오일뱅크,강남구,37.5258295895753,127.026526394126,10.93601909725086
483,명품주유소,서울 강남구 도곡로 249 (역삼동),1698.0,N,S-OIL,강남구,37.4941658353154,127.045509037091,13.301860351872365
484,대성석유(주)동호주유소,서울 강남구 봉은사로113길 51,1777.0,N,GS칼텍스,강남구,37.5185133147555,127.064676315855,14.362078162871057
485,SK논현주유소,서울 강남구 논현로 747 (논현동),1788.0,N,SK에너지,강남구,37.5185333217982,127.028244442649,11.174791882853775
486,대청주유소,서울 강남구 개포로 654 (일원동),1789.0,N,SK에너지,강남구,37.4949115610354,127.084285848356,16.553103697659356
487,경원주유소,서울 강남구 도산대로 428 (청담동),1845.0,N,S-OIL,강남구,37.5232937413996,127.042734465323,12.383401748585944
488,갤러리아주유소,서울 강남구 압구정로 426 (청담동),1848.0,N,SK에너지,강남구,37.5268171796175,127.04353234534,12.425625072135517
489,학여울주유소,서울 강남구  남부순환로 3170 (일원2동),1868.0,N,GS칼텍스,강남구,37.4984484660486,127.077571649146,15.88140021972628
490,(주)만정에너지,서울 강남구 봉은사로 433 (삼성동),1869.0,N,GS칼텍스,강남구,37.5115512804432,127.047114626083,12.944387975077882
491,(주)소모에너지엔테크놀러지 쎈트럴주유소,서울 강남구 삼성로 335 (대치동),1883.0,N,GS칼텍스,강남구,37.5014264471377,127.059074163314,14.21818514519955
492,뉴서울(강남),서울 강남구 언주로 716 (논현동),2025.0,N,SK에너지,강남구,37.5176692766197,127.035822681258,11.850028504296676
