,상호명,지점명,도로명주소,경도,위도,ID
0,버거킹오션월드,,강원도 홍천군 서면 한치골길 262,127.687272903554,37.652323738755705,홍천
1,로데오,,강원도 강릉시 경강로 2090-1,128.895743162693,37.7542445133823,강릉
2,왕눈이도넛츠,,강원도 영월군 영월읍 삼옥재길 2,128.476233572028,37.20998099421049,영월
3,씨지브이원주2,,강원도 원주시 서원대로 171,127.93079833298701,37.3448158723054,원주
4,베스킨라벤스,,강원도 삼척시 진주로 35,129.16371767884502,37.443797405735296,삼척
5,빅샌샌드위치,,강원도 춘천시 김유정로 1897,127.73782814980801,37.8553447664576,춘천
6,사랑의도시락사업장,,강원도 태백시 서학1길 58,128.98263075926099,37.155121496286505,태백
7,형제우,동본점,강원도 강릉시 경강로 2115,128.89779543101002,37.755976879832296,강릉
8,이용우피자하우스씨씨홈치킨,,강원도 춘천시 퇴계로 205,127.74132283160601,37.8569022693425,춘천
9,"네네치킨,피자",,강원도 철원군 갈말읍 두루미로 414,127.29778972059201,38.2041184927332,철원
10,바로피자앤돈가스,,강원도 화천군 사내면 문화마을1길 7,127.524577269443,38.0680000829145,화천
11,MARENA,,강원도 원주시 무실로 27,127.949182525611,37.3475105119334,원주
12,아이러브피자포남시장점,포남시장점,강원도 강릉시 경강로 2243-1,128.907872665308,37.7643152124254,강릉
13,링팡도너츠,,강원도 춘천시 평화로 1,127.716976636071,37.8846700486655,춘천
14,피자스쿨,단계점,강원도 원주시 백간길 75,127.931773710827,37.352070389896,원주
15,씨지브이춘천골드매점,,강원도 춘천시 지석로 80,127.743742788555,37.8505192424444,춘천
16,피자가기가막혀,,강원도 동해시 효자남길 4,129.108554793637,37.486469793537296,동해
17,배스킨31라빈스,,강원도 원주시 서원대로 396,127.94885527886998,37.330749660896394,원주
18,도미노피자남원주점,남원주점,강원도 원주시 남원로 623,127.951592175469,37.3389419394728,원주
19,아이리쉬포테이토강릉씨네몰점,강릉씨네몰점,강원도 강릉시 경강로 2120,128.898631873341,37.7557001986643,강릉
20,영월지역자활센터나눔도시락,,강원도 영월군 영월읍 단종로 12,128.468539650333,37.1846359361383,영월
21,스타크레페,,강원도 원주시 서원대로 171,127.93079833298701,37.3448158723054,원주
22,프린스치킨피자,,강원도 원주시 남원로606번길 2,127.952112907004,37.3364460664984,원주
23,굿도너츠,,강원도 속초시 설악금강대교로 12,128.595728650515,38.1910573879462,속초
24,인더가든2,,강원도 춘천시 남산면 햇골길 80,127.542154286217,37.8327975101837,춘천
25,한솥,,강원도 원주시 치악로 1773-1,127.955563535975,37.341052102839704,원주
26,피자몰,,강원도 춘천시 방송길 84,127.718061133766,37.86858028828971,춘천
27,스위트번스,,강원도 강릉시 금성로56번길 8,128.89497471329,37.752628511575395,강릉
28,그안,,강원도 강릉시 금성로56번길 13,128.894558672412,37.752947027815296,강릉
29,석봉토스트,,강원도 원주시 남원로 654,127.954073751807,37.3410785673273,원주
30,마귀할멈지팡이아이스크림,,강원도 속초시 청초호반로 326-1,128.591831686156,38.2032401883356,속초
31,쏘자,핫도그속초점,강원도 속초시 동해대로 4135,128.581935383944,38.1892615468111,속초
32,피자스타,,강원도 동해시 청운로 78,129.103167466309,37.486898661775605,동해
33,치악춘천휴게소스태프코너,,강원도 원주시 신림면 다리실2길 32,128.048743816553,37.2568317675516,원주
34,석봉토스트정선점,정선점,강원도 정선군 정선읍 5일장길 38-5,128.664719513453,37.3803281211478,정선
35,피자시치킨면쏘주리,,강원도 원주시 나비허리길 188,127.964671693498,37.3164006642524,원주
36,베스킨라빈스강릉대학로,,강원도 강릉시 경강로 2096,128.896189398253,37.7545474684864,강릉
37,송탄햄버거,,강원도 철원군 서면 와수로 175,127.438451335032,38.2392023834219,철원
38,오봉도시락북삼점,북삼점,강원도 동해시 효자로 681,129.10865784137698,37.4926770352391,동해
39,베스킨라빈스혁신점,혁신점,강원도 원주시 혁신로 37-1,127.97863719813401,37.324000420754,원주
40,베스킨라빈스,,강원도 원주시 무실로 2,127.94924919889999,37.3490694643784,원주
41,지정환피자,,강원도 춘천시 퇴계로 245,127.74582750722999,37.85561459260221,춘천
42,웬즐리도넛,,강원도 원주시 남원로 528-31,127.94977015143499,37.3295155254854,원주
43,대포횃도그,,강원도 원주시 서원대로 392,127.948448837092,37.3310378412266,원주
44,배스킨라빈스,알펜시아점,강원도 평창군 대관령면 솔봉로 325,128.691514546502,37.664668766259204,평창
45,바스키노빈스,,강원도 강릉시 경강로 2120,128.898631873341,37.7557001986643,강릉
46,케이에프씨춘천석사,,강원도 춘천시 영서로 2027,127.74531505415001,37.852622058859,춘천
47,피자스쿨,평창진부점,강원도 평창군 진부면 진부시장뒷길 48-2,128.558686307495,37.637953582340295,평창
48,파파델리피자,,강원도 원주시 남원로 649-1,127.95313710999399,37.3409069885428,원주
49,스테프도그,,강원도 강릉시 경강로 2120,128.898631873341,37.7557001986643,강릉
50,피자알볼로동해점,동해점,강원도 동해시 천곡로 40-1,129.10956479151,37.5241599868001,동해
51,화덕피자&파스타,,강원도 강릉시 하슬라로206번길 19-12,128.878255479853,37.7686393009215,강릉
52,이삭토스트,강원대점,강원도 춘천시 서부대성로 211,127.741876667796,37.8740591013288,춘천
53,뽕뜨락피자,우산점,강원도 원주시 상지대길 43,127.9372901421,37.369591022273795,원주
54,수피자,주문진점,강원도 강릉시 주문진읍 연주로 593,128.822013834556,37.9048007771377,강릉
55,카페뉴욕샌드위치,,강원도 속초시 수복로 145,128.584665019994,38.2022760193285,속초
56,피자스쿨,인제점,강원도 인제군 인제읍 인제로 200,128.172525425735,38.0690601755471,인제
57,피자알볼로,신철원점,강원도 철원군 갈말읍 삼부연로 24,127.31065104310301,38.145451517811296,철원
58,스테프핫도그,태백점,강원도 태백시 청솔길 8,128.983608641525,37.16195277112671,태백
59,뽕뜨락피자,,강원도 속초시 온정로1길 7,128.59181289870898,38.1854010700197,속초
60,피자에땅,화천점,강원도 화천군 화천읍 상승로 46,127.704510204247,38.10483717793471,화천
61,나폴리피자,,강원도 춘천시 애막골길20번길 35-1,127.74808809171302,37.8625483814062,춘천
62,뽕뜨락피자,단구점,강원도 원주시 치악로1524번길 2,127.965831940629,37.3204740522774,원주
63,피자스쿨,명륜점,강원도 원주시 예술관길 7,127.943752144675,37.3341085020155,원주
64,피자리아,장성점,강원도 태백시 장성로 11,129.008496886356,37.1038835098164,태백
65,한섬도시락,,강원도 동해시 부곡3길 20-8,129.107354274806,37.5368673817118,동해
66,힐링휴게실,,강원도 태백시 평화길 15,129.025220057522,37.1025956861443,태백
67,빙스퐁하계특설매장,하계특설매장,강원도 동해시 동해대로 6270-27,129.089417268785,37.59342109265071,동해
68,피자스쿨,남춘천점,강원도 춘천시 춘주로 150,127.72503287311399,37.8582349267786,춘천
69,피자알볼로,강릉점,강원도 강릉시 솔올로 101,128.878895755049,37.770950150217296,강릉
70,이삭토스트,한림대점,강원도 춘천시 삭주로 70,127.738490582826,37.883350240388395,춘천
71,버거225℃,,강원도 횡성군 둔내면 고원로 451-1,128.24372023203,37.480416912684,횡성
72,케이오십오수제햄버거,,강원도 삼척시 도계읍 도계로 286-1,129.044961380333,37.2348758678383,삼척
73,피자에땅,우산점,강원도 원주시 상지대길 40,127.937673858802,37.369780457912796,원주
74,네일수다,,강원도 삼척시 중앙시장길 22-26,129.166349017206,37.44077097538421,삼척
75,버거타운,,강원도 춘천시 서부대성로 18,127.725378448277,37.8845457823121,춘천
76,피자.찝,,강원도 강릉시 남부로125번길 37,128.891446983169,37.7442396919541,강릉
77,피자스쿨,단구점,강원도 원주시 단구로 398,127.955292997637,37.32145275677561,원주
78,이삭토스트,,강원도 원주시 흥업면 한라대길 5,127.911003617386,37.3047390452978,원주
79,모모의하루,,강원도 동해시 일출로 36,129.111689477348,37.551450494177,동해
80,이삭토스트,강북점,강원도 춘천시 충열로 10-9,127.729209132732,37.900205475737295,춘천
81,피자투어,노암점,강원도 강릉시 단오장길22번길 1,128.896402581764,37.74776114947979,강릉
82,라카이샌드파인레스토랑,,강원도 강릉시 해안로 536,128.903281480069,37.80767137127361,강릉
83,이삭토스트,,강원도 원주시 상지대길 70,127.934975099118,37.3701845039816,원주
84,피자스쿨,석사애막골점,강원도 춘천시 후석로186번길 16,127.754039001327,37.8673003826972,춘천
85,피자치킨마을,,강원도 삼척시 근덕면 삼척로 2236,129.300242578662,37.28872757910779,삼척
86,피자스쿨,입암점,강원도 강릉시 입암로 157,128.918348984317,37.759764983754295,강릉
87,프랜치키스,,강원도 삼척시 도계읍 도계로 319-12,129.045113368581,37.237721967086,삼척
88,서수미수제도시락,,강원도 삼척시 동해대로 4122-27,129.17974975131398,37.4485852049504,삼척
89,이삭토스트,구곡점,강원도 원주시 서원대로 392,127.948448837092,37.3310378412266,원주
90,미사랑임실치즈피자,,강원도 정선군 고한읍 고한6길 9-18,128.854378896959,37.2010898969731,정선
91,베스킨라빈스,원주홈플러스점,강원도 원주시 치악로 1489,127.96729993077,37.3177170503153,원주
92,시카고피자,,강원도 철원군 동송읍 금학로 206-1,127.218984152699,38.2072876101279,철원
93,헝그리햄버거,,강원도 원주시 상지대길 65,127.93548341752899,37.369896427567,원주
94,시장피자돈키돈키치킨,,강원도 원주시 흥업면 매남동길 3-2,127.90742961825899,37.275503947065204,원주
95,피자마루,우산점,강원도 원주시 우산로 47,127.93635402171499,37.368428091914296,원주
96,이삭토스트,와수점,강원도 철원군 서면 와수로181번길 25-16,127.437855743337,38.239406754286,철원
97,피자스쿨,,강원도 원주시 혁신로 37-1,127.97863719813401,37.324000420754,원주
98,마나,,강원도 동해시 대학로 14,129.113589332685,37.5216802859484,동해
99,피자와치킨의러브레터,태백점,강원도 태백시 서황지로 62,128.985701263607,37.1757042420305,태백
100,피자스쿨,원주무실점,강원도 원주시 시청로 84,127.92801854767599,37.3364068283043,원주
101,해피리아,,강원도 춘천시 춘주로 174,127.726852537372,37.8578697388731,춘천
102,피자나라치킨공주,읍하점,강원도 횡성군 횡성읍 읍하남로25번길 3,127.98900457353099,37.4938507081798,횡성
103,이삭토스트,강원화천점,강원도 화천군 화천읍 중앙로 13-1,127.705845085937,38.104642308669895,화천
104,피자투어&김병만투마리치킨,,강원도 인제군 북면 원통로 171-1,128.203171780419,38.1225033119664,인제
105,영봉이네도시락전문점,,강원도 춘천시 효자로 101-3,127.732938785482,37.8718766982635,춘천
106,피자투어,입암점,강원도 강릉시 성덕포남로 45-8,128.919455620848,37.75931485562671,강릉
107,버거야,,강원도 춘천시 중앙로 82,127.72520738050501,37.878571570749,춘천
108,버거킹,비발디점,강원도 홍천군 서면 한치골길 262,127.687272903554,37.652323738755705,홍천
109,피자마루,,강원도 삼척시 척주로 17,129.165862452892,37.444370959570605,삼척
110,59피자,북삼점,강원도 동해시 효자남길 29-1,129.107595395685,37.48888458649861,동해
111,시장피자,개운봉산점,강원도 원주시 행구로 32,127.959254009436,37.34121563170911,원주
112,베리원치킨&임실피자,화천점,강원도 화천군 화천읍 중앙로2길 13-3,127.70484279640301,38.1043604876359,화천
113,꼬로베이,,강원도 평창군 봉평면 태기로 68,128.320056833243,37.5896709430235,평창
114,크리스피크림도넛,춘천석사점,강원도 춘천시 퇴계농공로 11,127.745067134932,37.8520178307441,춘천
115,피자나라치킨공주동해북평점,동해북평점,강원도 동해시 전천로 282-1,129.12269850527701,37.481812980419505,동해
116,피자나라치킨공주속초점,속초점,강원도 속초시 수복로 80-1,128.57843075676502,38.199360727157,속초
117,빅도너츠,,강원도 속초시 중앙로147번길 15,128.590453464164,38.2036525636349,속초
118,미스터빅피자앤파스타,,강원도 철원군 서면 와수로173번길 4-1,127.438200306199,38.2391651435761,철원
119,밥리버거,,강원도 춘천시 공지로 265-2,127.734917255667,37.865339693589895,춘천
120,피자알볼로,양구점,강원도 양구군 양구읍 양록길 19,127.98509335084101,38.1068655864218,양구
121,이석민피자,문막점,강원도 원주시 문막읍 왕건로 17,127.83078299617901,37.321475383001,원주
122,대덕유통,지하상가점,강원도 춘천시 중앙로 33,127.72835510546601,37.8819667396856,춘천
123,빨라쪼델쁘레또,,강원도 원주시 치악고교길 39,127.961242328681,37.3154353955749,원주
124,버거킴스,,강원도 동해시 동해대로 6270-31,129.08904823572502,37.593739859736296,동해
125,비키니버거,,강원도 강릉시 경강로 2668,128.950185317663,37.770586097919505,강릉
126,이삭토스트,태장점,강원도 원주시 북원로 2704-1,127.94782489459,37.384716723858,원주
127,크랩비,춘천점,강원도 춘천시 서부대성로 217,127.742616420608,37.8737994223342,춘천
128,하이파이,,강원도 춘천시 공지로441번길 11,127.71823822919701,37.872815548735204,춘천
129,피자스쿨,강원원통점,강원도 인제군 북면 원통로 181,128.20391520329702,38.1232498469716,인제
130,롯데리아,엘리시안강촌리조트점,강원도 춘천시 남산면 북한강변길 688,127.57879577295,37.8301320342357,춘천
131,피자짱,,강원도 춘천시 동내면 영서로 1789,127.75942474253999,37.8363430159868,춘천
132,케이밥스타,,강원도 양양군 양양읍 양양로 83-2,128.62018571650802,38.074281051527706,양양
133,피자스쿨,화천점,강원도 화천군 화천읍 중앙로 28-1,127.706943461338,38.1037080204571,화천
134,피자스쿨,강릉교동점,강원도 강릉시 교동광장로 145,128.88094014460302,37.764357433292105,강릉
135,롯데리아,홍천점,강원도 홍천군 홍천읍 홍천로6길 22,127.884589409583,37.690886801522396,홍천
136,피자투어,관동대점,강원도 강릉시 관솔길 117,128.878995033724,37.7390532035015,강릉
137,한국맥도날드춘천퇴계DT점,춘천퇴계DT점,강원도 춘천시 영서로 2173,127.731041326063,37.8591588447191,춘천
138,국가대표피자,온의점,강원도 춘천시 영서로 2315-2,127.71779566977699,37.86666045948839,춘천
139,스윗.토스트,,강원도 강릉시 경강로 2194-1,128.904526194739,37.760727854969204,강릉
140,59피자,,강원도 춘천시 충열로 39,127.732713957192,37.89949266614421,춘천
141,한솥,도시락강원도립대학점,강원도 강릉시 주문진읍 연주로 300,128.827152846188,37.879320389588706,강릉
142,피자헤븐,춘천점,강원도 춘천시 퇴계로105번길 7,127.732269207111,37.8621620755562,춘천
143,이센피자,,강원도 원주시 우산로 61,127.93646625522899,37.3692211280237,원주
144,피자마루,,강원도 원주시 남원로 528-21,127.94883326578899,37.32992963692,원주
145,깨끗안피자나라,,강원도 강릉시 하평길 4-1,128.90934388578899,37.7695297800526,강릉
146,베스킨라빈스,강릉교동점,강원도 강릉시 교동광장로 135,128.879603228012,37.7645566339313,강릉
147,이삭토스트,,강원도 강릉시 경강로 2115,128.89779543101002,37.755976879832296,강릉
148,버거하우스,,강원도 춘천시 중앙로67번길 18,127.72774545171002,37.877730500702704,춘천
149,이삭토스트,강원영월점,강원도 영월군 영월읍 중앙로 59,128.470324342198,37.1836556462348,영월
150,함스밥버거,,강원도 강릉시 옥천로 34,128.901969954894,37.75863905843672,강릉
151,지뎅,,강원도 원주시 상지대길 53,127.936364193206,37.36975272731029,원주
152,롯데리아,강릉교동점,강원도 강릉시 교동광장로 106,128.876061011556,37.7644658866009,강릉
153,크리스피크림,원주무실점,강원도 원주시 능라동길 59,127.93080786448401,37.3344260416805,원주
154,피자마루,테이크아웃퇴계점,강원도 춘천시 춘주로 141,127.724325194428,37.859062220755796,춘천
155,산골매점,,강원도 인제군 인제읍 인제로241번길 27,128.176548341494,38.073703360865395,인제
156,헬로엠,,강원도 고성군 죽왕면 공현진길 48-7,128.510451620796,38.35592952030179,고성(강원)
157,도스마스,강대점,강원도 춘천시 서부대성로205번길 3,127.741284048885,37.87449930482849,춘천
158,시장피자,,강원도 원주시 늘품로 43,127.950597699484,37.323730713222496,원주
159,피자스쿨,영월점,강원도 영월군 영월읍 중앙1로 22,128.46591757801,37.1831504009072,영월
160,던킨도너츠,비발디파크점,강원도 홍천군 서면 한치골길 262,127.687272903554,37.652323738755705,홍천
161,또띠와피자,속초점,강원도 속초시 조양로142번길 20,128.585803967506,38.189098155264894,속초
162,피자&파스타EGO,,강원도 강릉시 하평6길 7,128.918195149974,37.770272061901004,강릉
163,라카이샌드파인스낵바,,강원도 강릉시 해안로 536,128.903281480069,37.80767137127361,강릉
164,BBQ와플반트코너,,강원도 횡성군 안흥면 영동고속도로 154,128.134541446289,37.462560803977496,횡성
165,사오정피자치킨,우산점,강원도 원주시 북원로2425번길 3,127.93938575747801,37.3610225644729,원주
166,피앤치,,강원도 춘천시 동내면 향군길 4,127.762227927178,37.8478999671105,춘천
167,배스킨라빈스31,속초조양점,강원도 속초시 동해대로 4024,128.59446607146,38.1902168742532,속초
168,피자알볼로,와수리점,강원도 철원군 서면 와수로 200,127.440541087412,38.24078905078761,철원
169,비지에프리테일설악한화,별관점,강원도 속초시 미시령로2983번길 16,128.533953806073,38.204661905596,속초
170,피자투어,,강원도 춘천시 서부대성로44번길 20-1,127.727060014726,37.8817294772824,춘천
171,뽕뜨락,,강원도 삼척시 정상로 78,129.175493367332,37.4488618904736,삼척
172,지정환임실치즈피자,단관점,강원도 원주시 서원대로 383,127.94854974732901,37.3319930666328,원주
173,문막휴게소롯데리아,,강원도 원주시 문막읍 원문로 1234,127.858209077472,37.335262429330896,원주
174,냠냠,,강원도 원주시 관설안길 15-8,127.961918184179,37.317580273343,원주
175,태경산업문막제1영업소배스킨라빈스31,,강원도 원주시 문막읍 개나루길 13,127.817007330921,37.297746498653005,원주
176,한솥도시락,연대점,강원도 원주시 흥업면 세동길 10-12,127.91035698343599,37.2792819039908,원주
177,나뚜루팝,원주반곡점,강원도 원주시 혁신로 37-1,127.97863719813401,37.324000420754,원주
178,베리원치킨&임실피자,,강원도 화천군 상서면 신월동로 12,127.598467431269,38.1920802582625,화천
179,피자나라치킨공주,거진점,강원도 고성군 거진읍 거탄진로 144-1,128.456299678997,38.447310167118395,고성(강원)
180,춘천시니어클럽,,강원도 춘천시 삭주로 98,127.741684275269,37.883582547818605,춘천
181,여치의꿈,,강원도 정선군 여량면 노추산로 745,128.73041081172198,37.517057615294796,정선
182,허브앤푸드,,강원도 원주시 치악고교길 33,127.960768402293,37.315570406981,원주
183,석봉토스트,원주단구점,강원도 원주시 단구로 413,127.955609764229,37.320029112289795,원주
184,피자나라치킨공주강원간성점,강원간성점,강원도 고성군 간성읍 간성로 29,128.471640983676,38.3788319690196,고성(강원)
185,피자타운,,강원도 원주시 일산로 75,127.951102358442,37.345925363368394,원주
186,라카이샌드파인컨벤션센터,,강원도 강릉시 해안로 536,128.903281480069,37.80767137127361,강릉
187,라카이샌드파인라운지바,,강원도 강릉시 해안로 536,128.903281480069,37.80767137127361,강릉
188,뉴욕핫도그앤커피,원주점,강원도 원주시 치악로 1781,127.954818473983,37.341349188003896,원주
189,샌토락,,강원도 춘천시 향교옆길15번길 18,127.73527172338301,37.883802570583704,춘천
190,7월의무화과협동조합,,강원도 원주시 흥업면 무수막1길 44,127.91537272381399,37.2814933453354,원주
191,어머니도시락,,강원도 동해시 한섬로 8,129.10643098320298,37.5187921481364,동해
192,피자치킨마을,,강원도 속초시 수복로 89-1,128.579031276922,38.200222698371704,속초
193,미투치킨피자,,강원도 홍천군 남면 양덕원1길 14,127.7695861145,37.6151640172951,홍천
194,수제버거앤토스트,,강원도 정선군 사북읍 사북중앙로 23-1,128.817371807755,37.22703258640321,정선
195,한솥도시락,,강원도 원주시 흥업면 세동길 29,127.91081976074601,37.278921804527,원주
196,피자스쿨,문막동화점,강원도 원주시 문막읍 왕건로 75,127.82903451217301,37.326275811746896,원주
197,롯데리아태백태백점,태백점,강원도 태백시 황지로 194-1,128.989309786006,37.1752236176664,태백
198,피자스쿨,,강원도 철원군 갈말읍 삼부연로 9,127.308861247679,38.145305854502794,철원
199,CGV,,강원도 춘천시 지석로 80,127.743742788555,37.8505192424444,춘천
200,피자스쿨원주봉산점,원주봉산점,강원도 원주시 행구로 68,127.964727646319,37.3415237686066,원주
201,CGV,,강원도 원주시 서원대로 171,127.93079833298701,37.3448158723054,원주
202,피자가기가막혀,,강원도 동해시 발한로 238,129.107736965323,37.550496502137,동해
203,도시락천국,,강원도 동해시 지리골길 6,129.10310750297302,37.54583642647471,동해
204,베스킨라빈스,,강원도 춘천시 경춘로 2341,127.71726044510599,37.8639560859478,춘천
205,한국미스터피자,명동점,강원도 춘천시 중앙로67번길 9,127.72719583005501,37.8788104621592,춘천
206,강원화천지역자활센터행복도시락,강원화천점,강원도 화천군 하남면 공단길 80-24,127.662500384289,38.053358257378704,화천
207,피자헛,속초교동점,강원도 속초시 청초호반로 188,128.57993701962798,38.196380095029895,속초
208,베스킨라빈스,혁신점,강원도 원주시 혁신로 37-3,127.97937072633499,37.3236491157147,원주
209,이삭토스트,,강원도 원주시 문막읍 동화초교길 15,127.827734337973,37.327382296753505,원주
210,BKR버거킹,대명비발디점,강원도 홍천군 서면 한치골길 262,127.687272903554,37.652323738755705,홍천
211,피자투어,초당점,강원도 강릉시 연당길 63,128.91551016091802,37.78357394587921,강릉
212,이삭토스트,원주단관점,강원도 원주시 단구로 413,127.955609764229,37.320029112289795,원주
213,토스트굽는사람들,,강원도 강릉시 경강로 2170-1,128.902531581902,37.759094279370004,강릉
214,몽고햄버거.몽고피자,,강원도 홍천군 홍천읍 희망로4길 18,127.885245344342,37.692004754657795,홍천
215,피자스쿨,원주태장점,강원도 원주시 흥양로 48-1,127.952478800789,37.3826100959392,원주
216,베스킨라빈스써티원아이스크림,,강원도 동해시 천곡로 68,129.112809793555,37.523273465954794,동해
217,베스킨라빈스,원주단관점,강원도 원주시 단관길 67-21,127.956363848121,37.323273410892796,원주
218,한화호텔앤드리조트아이라운지,,강원도 원주시 흥업면 연세대길 1,127.904318199294,37.2748346422844,원주
219,이삭토스트홍천점,홍천점,강원도 홍천군 홍천읍 신장대로 71-2,127.884158363067,37.690994505991604,홍천
220,황철수피자전문점,,강원도 정선군 정선읍 봉양6길 33,128.663321382994,37.380561243864996,정선
221,영스임실치즈피자,,강원도 양양군 강현면 일출로 31-12,128.632262756281,38.1174278874087,양양
222,동쪽바다중앙시장먹거리장터1호,,강원도 동해시 발한복개로 37,129.10808456678498,37.5510428731502,동해
223,수피자,,강원도 철원군 동송읍 북원로 1204,127.22937071014401,38.1903460904901,철원
224,이삭토스트,횡성점,강원도 횡성군 횡성읍 한우로 283-2,127.98544314583499,37.489056523517796,횡성
225,피자26,,강원도 홍천군 홍천읍 홍천로4길 24,127.881959241152,37.690595859431,홍천
226,한솥,도시락강원대후문점,강원도 춘천시 서부대성로 251,127.74595134524401,37.8725091831814,춘천
227,이삭토스트,철원점,강원도 철원군 동송읍 금학로210번길 3-12,127.21899890178301,38.2080445145173,철원
228,영철스트리트버거,,강원도 강릉시 주문진읍 교항원길 32,128.822934050523,37.884296482795,강릉
229,지정환임실치즈피자,,강원도 원주시 단구로 371,127.957210245578,37.323030418676,원주
230,베리원치킨&임실피자,다목리점,강원도 화천군 상서면 수피령로 1307,127.53302891402399,38.1761973032482,화천
231,스테프핫도그,원주중앙점,강원도 원주시 원일로 106-3,127.949090787068,37.3496461079162,원주
232,해피자연,,강원도 영월군 북면 원동재로 977-40,128.414288264384,37.2837092818603,영월
233,배스킨라빈스31,홍천중앙로점,강원도 홍천군 홍천읍 홍천로6길 24-1,127.884521138642,37.691039914720896,홍천
234,59피자,산양점,강원도 화천군 상서면 영서로 7708,127.66247906581499,38.20662526164789,화천
235,피자겟,동송점,강원도 철원군 동송읍 금학로 228,127.21777802857099,38.2090274419879,철원
236,로빈스,,강원도 정선군 정선읍 북실안길 32,128.650121736226,37.3766967676713,정선
237,59피자퇴계점,퇴계점,강원도 춘천시 승지골길16번길 16,127.741963128659,37.84926292106511,춘천
238,5070피자,,강원도 철원군 갈말읍 삼부연로 1-1,127.308189873328,38.145121707590214,철원
239,59피자,태장점,강원도 원주시 현충로58번길 71-2,127.961217317165,37.3640955101751,원주
240,한솥식당,,강원도 원주시 상지대길 68,127.93518965695,37.370139566307,원주
241,피자매니아,,강원도 춘천시 공지로252번길 4,127.73655654724399,37.8645955174395,춘천
242,베리원치킨&임실피자,산양점,강원도 화천군 상서면 영서로 7745,127.66346918936199,38.209817558728105,화천
243,베스킨라빈스써리원,,강원도 동해시 대학로 28,129.112928731513,37.52290291839879,동해
244,피자가기가막혀,,강원도 동해시 한섬로 18,129.105753260534,37.5196274539554,동해
245,시장피자,,강원도 원주시 강변로 359,127.962674522811,37.339576734048,원주
246,31아이스크림,후평점,강원도 춘천시 후석로 296,127.751707855457,37.8778014926794,춘천
247,피자와치킨의러브레터,도계점,강원도 삼척시 도계읍 도계로 323-1,129.045295162631,37.237828493140796,삼척
248,피자왔닭,,강원도 화천군 사내면 사내로7길 3,127.52067677424601,38.0719215830999,화천
249,피자치킨마을,,강원도 강릉시 화부산로91번길 4-1,128.888049862785,37.764754582484606,강릉
250,피자링,,강원도 고성군 간성읍 간성로 40,128.47061384369,38.379286569628896,고성(강원)
251,피자플러스,,강원도 횡성군 둔내면 둔내로 34-1,128.214447856934,37.512588430303296,횡성
252,미스터빅,,강원도 화천군 화천읍 상승로 42-19,127.704625643407,38.1044860809858,화천
253,피니치니,,강원도 홍천군 남면 양덕원1길 14,127.7695861145,37.6151640172951,홍천
254,에스알에스코리아,,강원도 강릉시 솔올로 25,128.877613137884,37.7642290827876,강릉
255,엄마손도시락,,강원도 원주시 무실로 122-2,127.942661277022,37.343975170484796,원주
256,피자가기가막혀,,강원도 동해시 발한로 240,129.107556583826,37.5505432462019,동해
257,피자링,,강원도 고성군 거진읍 거탄진로 129,128.455023263383,38.44654933494839,고성(강원)
258,스마일밥버거,,강원도 원주시 토지길 21,127.95726701473998,37.3224086691575,원주
259,피자헛,,강원도 홍천군 홍천읍 홍천로6길 23,127.884271668252,37.6910486807705,홍천
260,피자명,,강원도 속초시 만천1길 4-5,128.575681799241,38.1982390151252,속초
261,"오구쌀피자,치킨",,강원도 원주시 서원대로 380,127.94748916778799,37.331722266353296,원주
262,신맥강릉점,강릉점,강원도 강릉시 경강로 2097,128.896081032914,37.754971772670395,강릉
263,쉐프밥버거한림대점,한림대점,강원도 춘천시 삭주로 78,127.73939991598999,37.8833882977981,춘천
264,피자마루,중동미리내점,강원도 삼척시 원덕읍 호산중앙로 11-14,129.33598023931998,37.17437203171679,삼척
265,코노피자,,강원도 원주시 서원대로 113,127.92605554309401,37.3472460062832,원주
266,골드치킨피자,,강원도 양양군 현남면 인구항길 10,128.761760960739,37.9702404541549,양양
267,한국맥도날드원주단계DT,,강원도 원주시 서원대로 154,127.928180433188,37.344174522209286,원주
268,피자헛강릉2호점,강릉2호점,강원도 강릉시 문화의길7번길 10,128.893894977975,37.754375678259294,강릉
269,스테프핫도그,,강원도 속초시 동해대로 4284,128.572994687823,38.1991711491637,속초
270,이삭토스트,평창점,강원도 평창군 평창읍 백오로 96,128.395262553898,37.367613598727395,평창
271,쉐프밥버거한림대점,한림대점,강원도 춘천시 삭주로 64,127.737922489561,37.8832588744145,춘천
272,우리집피자,홍천점,강원도 홍천군 홍천읍 홍천로3길 7,127.87996588225201,37.689179184619604,홍천
273,피자토비,서부점,강원도 강릉시 율곡로 2806,128.900410031368,37.7554073105584,강릉
274,피자스쿨,춘천후평점,강원도 춘천시 후석로 299,127.75113945464399,37.8778093029247,춘천
275,한국맥도날드원주단구DT,,강원도 원주시 서원대로 426,127.951338949324,37.329101668152795,원주
276,네네치킨피자,,강원도 홍천군 남면 시동안로321번길 44,127.843309721735,37.59664175588209,홍천
277,문막휴게소강릉방향롯데리아,,강원도 원주시 문막읍 원문로 1234,127.858209077472,37.335262429330896,원주
278,피자짱,,강원도 춘천시 퇴계로145번길 7-10,127.735503497894,37.86031326122721,춘천
279,치킨마스터와피자마스터,,강원도 원주시 나비허리길 188,127.964671693498,37.3164006642524,원주
280,강촌스태프핫도그,,강원도 춘천시 남산면 북한강변길 688,127.57879577295,37.8301320342357,춘천
281,네네치킨엘도라피자,,강원도 횡성군 둔내면 둔내로 34-1,128.214447856934,37.512588430303296,횡성
282,피자가기가막혀,,강원도 동해시 효자남길 6,129.10863619789302,37.4866222076022,동해
283,에스알에스KFC현대성우,,강원도 횡성군 둔내면 고원로 451,128.250118479578,37.490135301900004,횡성
284,미스터피자,,강원도 춘천시 우석로 44,127.750655230569,37.8629593091953,춘천
285,조이토스트,,강원도 철원군 갈말읍 삼부연로 9,127.308861247679,38.145305854502794,철원
286,피자나라치킨공주거진점,거진점,강원도 고성군 거진읍 거탄진로 132-2,128.455447128062,38.44654768822279,고성(강원)
287,피자헛,,강원도 원주시 금불1길 22-2,127.931845021435,37.348105539581105,원주
288,피자넘버원,,강원도 춘천시 서부대성로 181,127.73883666819201,37.8754850333772,춘천
289,피자굼터,,강원도 철원군 동송읍 금학로 202,127.219297525114,38.2068121856542,철원
290,치악휴게소,,강원도 원주시 신림면 다리실2길 32,128.048743816553,37.2568317675516,원주
291,뽕뜨락쌀피자,,강원도 평창군 진부면 진부중앙로 49,128.557403847647,37.6361575343914,평창
292,불타는토스트,,강원도 삼척시 도계읍 도계느티로4길 195,129.062647875876,37.2279513093074,삼척
293,피자알볼로,춘천중앙점,강원도 춘천시 삭주로 53,127.736718098043,37.8830759817405,춘천
294,대청산업개발동해상휴게소,,강원도 동해시 동해대로 6437,129.074149671057,37.601850534071396,동해
295,피자토비,,강원도 동해시 한섬로 47,129.10896316241002,37.520201055517504,동해
296,피자인러시,,강원도 화천군 사내면 사내로 27,127.52167829509199,38.0703939745307,화천
297,소시지.핫도그.앤커피,,강원도 강릉시 하슬라로 15,128.879769674633,37.7546531593103,강릉
298,피자스쿨단계점,단계점,강원도 원주시 백간길 81,127.932326269329,37.3526744518662,원주
299,피자엉클피자,,강원도 고성군 토성면 봉포4길 19,128.561908294818,38.25257997398821,고성(강원)
300,몽고피자,,강원도 홍천군 홍천읍 희망로4길 18,127.885245344342,37.692004754657795,홍천
301,뽕뜨락피자,,강원도 인제군 북면 원통로 187,128.20436131954702,38.1237175873635,인제
302,피자OK와하얀종이배,,강원도 정선군 정선읍 5일장길 50,128.665252191608,37.3805503987955,정선
303,브링웰피자원주단관점,원주단관점,강원도 원주시 단관길 67-21,127.956363848121,37.323273410892796,원주
304,소풍가는길에,,강원도 강릉시 주문진읍 연주로 323,128.825526113042,37.881250952526,강릉
305,뽕뜨락피자,,강원도 강릉시 주문진읍 주문로 116-1,128.827904984539,37.8937041678265,강릉
306,플레이뱅즈,,강원도 동해시 청운1길 29,129.10352868485,37.4876251363099,동해
307,피자퀵,,강원도 원주시 강변로 347,127.96230264206301,37.3384682465384,원주
308,피자큐,,강원도 인제군 인제읍 인제로193번길 10,128.171638144031,38.0697822745885,인제
309,명품임실피자,,강원도 춘천시 삭주로80번길 17,127.74031348953501,37.882218980564105,춘천
310,또래오래,목우촌피자간동점,강원도 화천군 간동면 간척월명로 310-7,127.817735818772,38.0551250100111,화천
311,피자나무,,강원도 강릉시 신대학길 27-1,128.895998172525,37.75374701295561,강릉
312,신맥춘천명동점,춘천명동점,강원도 춘천시 명동길 14,127.727057324948,37.8793777887467,춘천
313,피자스쿨,양구점,강원도 양구군 양구읍 사명길 118-17,127.988787738206,38.1079021415248,양구
314,뽕뜨락피자,,강원도 평창군 평창읍 백오로 86,128.394743174476,37.367606322122796,평창
315,부오나피자,,강원도 삼척시 진주로 39,129.163679040207,37.4442212789679,삼척
316,와플반트,,강원도 평창군 봉평면 태기로 321,128.340001039515,37.5755043937488,평창
317,석봉토스트,평창진부점,강원도 평창군 진부면 진부시장안길 5,128.55761634010798,37.63730087253129,평창
318,불타는토스트,,강원도 삼척시 도계읍 도계느티로 10-1,129.047355043267,37.23275518467,삼척
319,피자Q,,강원도 인제군 북면 원통로147번길 41,128.203951249055,38.1239075080959,인제
320,피자토비,,강원도 고성군 간성읍 간성로 64-1,128.467823079798,38.3795860415956,고성(강원)
321,임실N치즈피자,고한점,강원도 정선군 고한읍 물한리길 32,128.837419017331,37.2107266970617,정선
322,파르마피자,,강원도 철원군 서면 와수로 172-1,127.438660273931,38.2387709198214,철원
323,롯데리아,원주하나로점,강원도 원주시 무실로 178,127.939266063416,37.3414413491967,원주
324,파파존스,춘천점,강원도 춘천시 후석로 342,127.74911547396098,37.881328027946,춘천
325,뚱스밥버거,중앙점,강원도 원주시 중앙로 112,127.950591852438,37.3498900445203,원주
326,착한수제버거&컵밥,,강원도 화천군 사내면 사내로 25-1,127.521769704572,38.070358306743,화천
327,길거리토스트,,강원도 강릉시 토성로 83,128.886751549927,37.752023910782796,강릉
328,옛맛분식,,강원도 속초시 조양상가길 25,128.58002385197202,38.1900548498748,속초
329,마이샌드위치,,강원도 원주시 금불4길 43,127.932824918018,37.3504489907441,원주
330,토마토피자,,강원도 삼척시 도계읍 도계강변길 42-5,129.043910971404,37.2355249051987,삼척
331,도기,강대점,강원도 춘천시 서부대성로 215,127.742240877141,37.8739247448638,춘천
332,와플몽,속초점,강원도 속초시 중앙로 139-2,128.59080565585,38.2034345593533,속초
333,SuwariZiller,,강원도 춘천시 지석로 80,127.743742788555,37.8505192424444,춘천
334,아시안피자,강대점,강원도 춘천시 후석로 252,127.75281189258301,37.8739834533116,춘천
335,크로마자이언트피자,,강원도 화천군 상서면 영서로 7712,127.662580915266,38.2068237691541,화천
336,패밀리스파,,강원도 속초시 미시령로2983번길 88,128.52786734361402,38.2077347097235,속초
337,투머루파파,평창점,강원도 평창군 평창읍 백오로 130,128.397079931391,37.3675534455699,평창
338,롯데리아낙산해수욕장점,낙산해수욕장점,강원도 양양군 강현면 일출로 31-7,128.631648965183,38.11766544373221,양양
339,석봉토스트,입암점,강원도 강릉시 용지로 49,128.909843753541,37.7556682384197,강릉
340,토스트굽는사람들,강원진부점,강원도 평창군 진부면 청송로 92,128.55669294382,37.6365483451696,평창
341,아이러브피자고성천진점,고성천진점,강원도 고성군 토성면 토성로 137,128.559270242388,38.2572145115815,고성(강원)
342,토스트굽는사람들,,강원도 동해시 천곡로 36,129.109159177387,37.524271921857704,동해
343,봉구스밥버거,삼척점,강원도 삼척시 청석로 67,129.176276743295,37.44836753067,삼척
344,아시안피자,석사퇴계점,강원도 춘천시 춘주로 88-1,127.719404559665,37.8619969687613,춘천
345,던킨도너츠,춘천롯데마트점,강원도 춘천시 방송길 84,127.718061133766,37.86858028828971,춘천
346,59피자,원주무실점,강원도 원주시 시청로 76,127.926833229144,37.336766546761204,원주
347,아이러브피자,도계점,강원도 삼척시 도계읍 도계로 228,129.043844850513,37.2299117011366,삼척
348,맘스터치,강릉대학로점,강원도 강릉시 신대학길 32,128.89646318703,37.7537254564213,강릉
349,임실치즈피자&2:1돈까스,,강원도 속초시 조양로142번길 20,128.585803967506,38.189098155264894,속초
350,맥도날드,원주단구DT점,강원도 원주시 서원대로 426,127.951338949324,37.329101668152795,원주
351,더피자,,강원도 원주시 치악로 1489,127.96729993077,37.3177170503153,원주
352,불타는토스트,관설점,강원도 원주시 치악고교길 28,127.960238166977,37.3155071518204,원주
353,마시와,,강원도 강릉시 연곡면 해안로 1445-1,128.845615793463,37.8685753628468,강릉
354,한솥,도시락삼척강원대점,강원도 삼척시 언장1길 46,129.1672880171,37.455385707199895,삼척
355,토스피아,삼척도계점,강원도 삼척시 도계읍 도계로 337-2,129.04552793666,37.2391780708036,삼척
356,요거프레소,롯데시네마점,강원도 원주시 서원대로 408,127.950006819188,37.3299751943051,원주
357,일과사랑,,강원도 춘천시 삭주로 51,127.736593208212,37.8830306510133,춘천
358,로마화덕구이피자,,강원도 원주시 서원대로 125-1,127.926586867391,37.3463902806222,원주
359,풀타임,,강원도 인제군 북면 원통로174번길 28,128.20585877148898,38.120840810188795,인제
360,던킨도너츠,강원철원점,강원도 철원군 동송읍 금학로 205,127.218632425136,38.2070780489437,철원
361,한탄강랜드스타트,,강원도 철원군 갈말읍 순담길 59,127.293520288583,38.1709373111346,철원
362,아이러브피자,평릉점,강원도 동해시 평원로 100,129.114035750807,37.5319209041984,동해
363,마마진스수제버거플러스,,강원도 원주시 판부면 매봉길 10-3,127.942272366062,37.3212308534729,원주
364,아이러브피자,홍제점,강원도 강릉시 토성로 102,128.888360939421,37.7528046910848,강릉
365,미스트피자,,강원도 강릉시 경강로 2090-1,128.895743162693,37.7542445133823,강릉
366,아이러브피자,삼척점,강원도 삼척시 척주로 21,129.166448057005,37.4442390345468,삼척
367,쏘자,,강원도 원주시 흥업면 세동길 9,127.91099877890801,37.2801204320266,원주
368,겐조에프앤디,석사점,강원도 춘천시 세실로 108,127.759121245249,37.866779281168704,춘천
369,쾌남버거,한림대점,강원도 춘천시 성심로 7,127.73968570815,37.8829384162844,춘천
370,쏠레일,,강원도 철원군 김화읍 김화로 607,127.41937473821501,38.24919134299171,철원
371,토스트잇,,강원도 춘천시 동면 춘천로449번길 20-1,127.753846226947,37.8944930086143,춘천
372,행복맘치킨앤버거,,강원도 인제군 남면 신남로 63,128.07983823018998,37.9686251238856,인제
373,자연의맛,,강원도 동해시 지양길 80,129.101114569336,37.4964869276925,동해
374,토스트만나,,강원도 속초시 중앙로129번길 53,128.58886555195298,38.2049669435839,속초
375,배스킨라빈스,동해나안점,강원도 동해시 청운1길 57,129.109784730674,37.486296057781104,동해
376,한솥,도시락한림대앞점,강원도 춘천시 삭주로 68,127.73830878645,37.8833228056154,춘천
377,죠스시카고피자,석사점,강원도 춘천시 퇴계농공로 20,127.74430724660401,37.851592698074,춘천
378,배스킨라빈스,원주터미널점,강원도 원주시 서원대로 171,127.93079833298701,37.3448158723054,원주
379,새싹토스트,,강원도 원주시 천사로 20,127.927375536665,37.3478595801281,원주
380,마이브루클린키친,이마트속초점,강원도 속초시 설악금강대교로 12,128.595728650515,38.1910573879462,속초
381,짱구김밥토스트,,강원도 속초시 동해대로 4135,128.581935383944,38.1892615468111,속초
382,봉구스밥버거,롯데시네마점,강원도 원주시 서원대로 408,127.950006819188,37.3299751943051,원주
383,치타밥버거,,강원도 원주시 남원로 625-6,127.951388862608,37.3392031790193,원주
384,롯데리아,속초점,강원도 속초시 중앙로 128,128.590032694471,38.202447380384896,속초
385,기대치,원주단계점,강원도 원주시 서원대로 165-3,127.929816215945,37.3450045273963,원주
386,진푸드,,강원도 원주시 장미공원길 27,127.932162018796,37.3470424095264,원주
387,오봉도시락,동해점,강원도 동해시 평원로 78,129.115310235201,37.5308906994959,동해
388,불타는토스트,,강원도 강릉시 하슬라로 27,128.878782991376,37.75470557155921,강릉
389,요거프레소,춘천소양로점,강원도 춘천시 모수물길 40,127.727947910233,37.887588208374,춘천
390,오구피자,,강원도 춘천시 서부대성로44번길 1,127.727816630073,37.883100790581295,춘천
391,마운틴탑실내가판대,,강원도 정선군 고한읍 강원남로 6626-17,128.883642209536,37.199875006411396,정선
392,마카와플앤토스트,,강원도 평창군 봉평면 기풍로 153,128.377804472795,37.6161087784917,평창
393,나뚜루,춘천중앙점,강원도 춘천시 금강로 55,127.728202211019,37.88026344458471,춘천
394,토스트굽는마을,,강원도 원주시 서원대로 410,127.950322914622,37.329777082161606,원주
395,마레,,강원도 강릉시 솔올로 63,128.878492591187,37.7675743289745,강릉
396,왕눈이도너츠,,강원도 영월군 영월읍 중앙로 44,128.46847560247298,37.183383619899104,영월
397,GS25낙산터미널점,낙산터미널점,강원도 양양군 강현면 동해대로 3089,128.628227792612,38.117683786475204,양양
398,토마토도시락,강원대점,강원도 춘천시 후석로186번길 9,127.752957205028,37.867910818520606,춘천
399,아이원피자,포남점,강원도 강릉시 성덕포남로 158,128.91082957638,37.7666530662652,강릉
400,폼프리츠,강원대점,강원도 춘천시 서부대성로 228,127.74326661,37.8731430906117,춘천
401,59피자,,강원도 원주시 서원대로 392,127.948448837092,37.3310378412266,원주
402,본도시락,원주혁신도시점,강원도 원주시 혁신로 37-1,127.97863719813401,37.324000420754,원주
403,미스터피자,강원대점,강원도 춘천시 서부대성로 221-1,127.742958081635,37.8736109526053,춘천
404,고선생고르케,,강원도 강릉시 곶감전길 1-1,128.89669125577498,37.7528767608308,강릉
405,시장피자,,강원도 인제군 인제읍 비봉로 10-2,128.17237517182699,38.0681684057545,인제
406,홍탕&크리스피자&치킨홍,,강원도 동해시 임항로 55,129.10770277039302,37.5390085863829,동해
407,배스킨라빈스31,,강원도 홍천군 홍천읍 꽃뫼로 99-2,127.88476936814301,37.691833089369396,홍천
408,롯데리아익스프레스점,익스프레스점,강원도 춘천시 서부대성로57번길 10,127.729838294393,37.883619032623,춘천
409,아이러브피자,천곡점,강원도 동해시 한섬로 74,129.112014034459,37.5199651296194,동해
410,요거프레소,춘천후평점,강원도 춘천시 후석로 387,127.74674975158999,37.884990145547796,춘천
411,아리랑핫도그,,강원도 홍천군 서면 한치골길 262,127.687272903554,37.652323738755705,홍천
412,익스트림피자,춘천퇴계점,강원도 춘천시 지석로 11,127.73747092562701,37.85353289649171,춘천
413,뜨겁개핫도그,,강원도 인제군 인제읍 인제로 218-1,128.174385403196,38.070012490942,인제
414,후크더쿠크,,강원도 춘천시 서부대성로 222-1,127.742845447547,37.8733133670665,춘천
415,임실자연피자,,강원도 강릉시 강릉대로98번길 7,128.882668483261,37.7541179021806,강릉
416,마운틴탑실내가판대,,강원도 정선군 고한읍 하이원길 265-1,128.827806542105,37.2094876563461,정선
417,콜드스톤씨너스,원주점,강원도 원주시 서원대로 165-3,127.929816215945,37.3450045273963,원주
418,임실N치즈피자강릉점뽀뚜루아,,강원도 강릉시 임영로 179,128.891400109674,37.7573589361499,강릉
419,에스알에스코리아,,강원도 정선군 고한읍 고한3길 50-3,128.85276786674402,37.1990740124369,정선
420,1M피자정짜족발,,강원도 원주시 서원대로 439-1,127.953404076501,37.3289493098351,원주
421,미스터파파&핫마일드깐소,,강원도 원주시 흥업면 세동길 10-8,127.91051461440901,37.2794892814005,원주
422,톰스피자,,강원도 동해시 발한로 85,129.10149582766198,37.540129875244396,동해
423,오구쌀피자.치킨,,강원도 원주시 서원대로 434,127.952354857735,37.3285974571518,원주
424,쫑기네밥집명가퓨전도시락돈,,강원도 춘천시 공지로 349,127.72757007097401,37.869792031689,춘천
425,신맥맥도날드원주,,강원도 원주시 북원로 1928,127.91901839592501,37.32065853296511,원주
426,석봉토스트,한림성심대점,강원도 춘천시 동면 장학길 12,127.756746550196,37.8942016988088,춘천
427,토스피아삼척남양점,삼척남양점,강원도 삼척시 사직로 12,129.166697712161,37.4333879404889,삼척
428,짱구버거,,강원도 정선군 사북읍 사북중앙로 23-1,128.817371807755,37.22703258640321,정선
429,실외가판대,,강원도 정선군 고한읍 하이원길 265-1,128.83877203070801,37.1924967124026,정선
430,석봉토스트,,강원도 속초시 번영로 39,128.582476217211,38.2041338857002,속초
431,아이러브피자,,강원도 강릉시 주문진읍 주문로 6-1,128.825346640493,37.884522864998296,강릉
432,쭈노치킨시장피자,,강원도 원주시 문막읍 건등로 46-2,127.821030020054,37.3137745182051,원주
433,아시안피자,,강원도 춘천시 공지로 111,127.74564212310301,37.856650378892,춘천
434,KJ피자스테이션,,강원도 춘천시 영서로2753번길 14,127.727186787213,37.899750293831,춘천
435,올리브피자.치킨,,강원도 원주시 치악로 1960,127.95607422589501,37.3555962421267,원주
436,임실치즈피자시티,,강원도 양양군 양양읍 군청길 73,128.626112314464,38.078268032012296,양양
437,또래오래목우촌참피자&멕시칸치,,강원도 동해시 천곡로 7,129.10658240764099,37.5259810411287,동해
438,현대성우롯데리아점,,강원도 횡성군 횡성읍 문정로 20,127.98554477861201,37.489795430164,횡성
439,부오나피자,,강원도 양양군 양양읍 양양로 79,128.620654828449,38.074494812290396,양양
440,토마토피자,,강원도 삼척시 도계읍 도계로 318,129.045389863356,37.2373410693549,삼척
441,시장피자구곡단관점,단관점,강원도 원주시 늘품로 43,127.950597699484,37.323730713222496,원주
442,봉구스,,강원도 양양군 양양읍 양양로 81-4,128.620368147629,38.07428909864871,양양
443,장수삼계탕수제도시락,,강원도 태백시 먹거리길 51,128.987662463807,37.1758410984205,태백
444,폴앤메리버거강문점,,강원도 강릉시 창해로370번길 10-1,128.917050816389,37.7961671672056,강릉
445,봉구스밥버거,원통점,강원도 인제군 북면 원통로174번길 3,128.203867101583,38.122357948883796,인제
446,봉구스밥버거,동송점,강원도 철원군 동송읍 이평로53번길 12-4,127.217937298997,38.2090825606587,철원
447,맥시칸치킨피자,,강원도 인제군 상남면 내린천로 2561,128.259950574414,37.8717394376482,인제
448,에스알에스코리아,,강원도 춘천시 경춘로 2341,127.71726044510599,37.8639560859478,춘천
449,아이러브피자,부곡점,강원도 동해시 발한로 85,129.10149582766198,37.540129875244396,동해
450,뚱스밥버거,,강원도 평창군 평창읍 백오로 91,128.39497019912702,37.3678398511685,평창
451,봉구스밥버거,시창점,강원도 화천군 사내면 사내로 38-1,127.52148825690901,38.0715735021841,화천
452,봉구스밥버거,,강원도 춘천시 서부대성로239번길 29,127.74590889037701,37.8749418701176,춘천
453,본스치킨킴스피자,,강원도 횡성군 둔내면 경강로둔방5길 2,128.210348425685,37.5109738475494,횡성
454,맘스터치치킨피자,,강원도 화천군 상서면 영서로 7717,127.66224820278299,38.20716518342021,화천
455,피자토비,,강원도 동해시 한섬로 47,129.10896316241002,37.520201055517504,동해
456,KFC춘천1,,강원도 춘천시 중앙로67번길 4,127.726467607618,37.8789979884425,춘천
457,브런치,,강원도 원주시 무실로 153,127.94142128187599,37.34201013709049,원주
458,던킨도너츠,,강원도 원주시 중앙로 134,127.94971072283899,37.3509529850719,원주
459,써브웨이,,강원도 고성군 거진읍 빨래골길 24-18,128.46280535496598,38.4524650316683,고성(강원)
460,던킨도너츠원주구곡점,원주구곡점,강원도 원주시 서원대로 416-21,127.948744330665,37.32795615656929,원주
461,SRSKFC춘천1,,강원도 춘천시 중앙로67번길 4,127.726467607618,37.8789979884425,춘천
462,SRS코리아KFC,,강원도 동해시 한섬로 111-7,129.115249607932,37.5222593064486,동해
463,기쁨두배피자,,강원도 원주시 현충로 282,127.949443900592,37.3785268224685,원주
464,오봉도시락강원영월점,강원영월점,강원도 영월군 영월읍 중앙1로 32-1,128.465934264433,37.184033441985,영월
465,DHC치킨,,강원도 강릉시 보래미길 5,128.90698084991,37.7712148756967,강릉
466,오봉도시락북삼점,북삼점,강원도 동해시 지양길 2,129.10853426581198,37.49273225765261,동해
467,UP삼성프라자,,강원도 태백시 태백로 992,128.994093832848,37.1690650945417,태백
468,UP중앙프라자,중앙프라자,강원도 원주시 문막읍 여원로 2185,127.830786551663,37.3198894251277,원주
469,던킨도너츠,,강원도 원주시 원문로100번길 2-39,127.93689319645901,37.3582368303472,원주
470,오면빠지는버거,,강원도 강릉시 경강로 2068-1,128.89386845609,37.7531144485436,강릉
471,롯데리아,속초점,강원도 속초시 소평로 162,128.577873862015,38.189569916073204,속초
472,미스피자,,강원도 원주시 단관초교길 4,127.965167343062,37.31808589969121,원주
473,바베또피자치킨,,강원도 원주시 나비허리길 50,127.958044828233,37.3237335879096,원주
474,59피자,,강원도 강릉시 경강로 2106,128.897251872631,37.7551340589726,강릉
475,다우리피자.치킨,,강원도 원주시 단구초교길 11,127.96461193553301,37.3235374885408,원주
476,위너스버거강릉점,강릉점,강원도 강릉시 하슬라로 27,128.878782991376,37.75470557155921,강릉
477,뉴옥핫도그&커피속초시너스,,강원도 속초시 조양로142번길 20,128.585803967506,38.189098155264894,속초
478,브링웰피자단계성원점,단계성원점,강원도 원주시 무실로 174,127.93978537132601,37.341261392017294,원주
479,샌드프레소,,강원도 원주시 장미공원길 43-9,127.930481334123,37.345869987981,원주
480,불타는토스트시네마점,,강원도 원주시 서원대로 410,127.950322914622,37.329777082161606,원주
481,아이원피자,,강원도 강릉시 율곡초교길11번길 19,128.879504850615,37.766791900590206,강릉
482,오공도시락,,강원도 원주시 서원대로 406,127.949679419576,37.3302003342349,원주
483,피자클럽클래식,강릉중앙점,강원도 강릉시 금성로5번길 9,128.900365944464,37.7545787076278,강릉
484,아이리시포테이토,,강원도 원주시 서원대로 406,127.949679419576,37.3302003342349,원주
485,티파니,,강원도 강릉시 금성로56번길 8,128.89497471329,37.752628511575395,강릉
486,천지족발신피자,,강원도 원주시 단구로 216,127.951121569956,37.3336972632054,원주
487,스태프핫도그,춘천명동점,강원도 춘천시 중앙로67번길 9,127.72719583005501,37.8788104621592,춘천
488,토스트굽는사람들,원주터미널점,강원도 원주시 서원대로 171,127.93079833298701,37.3448158723054,원주
489,피자프란체,,강원도 춘천시 안마산로 213,127.737733597221,37.8499563834241,춘천
490,크라제버거강릉점,강릉점,강원도 강릉시 경강로 2120,128.898631873341,37.7557001986643,강릉
491,롯데리아,포남점,강원도 강릉시 하평2길 11,128.912225981152,37.77130053133,강릉
492,도미노피자,춘천점,강원도 춘천시 춘천로 247,127.741017385309,37.8792381286072,춘천
493,피자투어,,강원도 원주시 남원로 655-1,127.95347536496,37.3414387787922,원주
494,봉구스밥버거,양구점,강원도 양구군 양구읍 양록길 104,127.98978002332198,38.1063435102053,양구
495,배스킨라빈스,춘천강북점,강원도 춘천시 충열로 10-13,127.72890225238899,37.900168728405205,춘천
496,미스터피자,남원주단관점,강원도 원주시 서원대로 408,127.950006819188,37.3299751943051,원주
497,던킨도너츠,원주단계점,강원도 원주시 서원대로 181,127.931972545767,37.3443750081495,원주
498,배스킨라빈스31,속초점,강원도 속초시 중앙로 136,128.59083532075002,38.2028667995778,속초
499,미스터피자,강릉옥천점,강원도 강릉시 경강로 2129,128.899146533832,37.7569667134439,강릉
500,맘스터치,강릉점,강원도 강릉시 하슬라로 27,128.878782991376,37.75470557155921,강릉
501,스위트번스,,강원도 철원군 동송읍 금학로 222-1,127.21817191852,38.2084984995924,철원
502,피자알볼로,원주시청점,강원도 원주시 시청로 22,127.922180063793,37.3402058310921,원주
503,롯데리아,홈플러스원주점,강원도 원주시 치악로 1489,127.96729993077,37.3177170503153,원주
504,롯데리아,우산점,강원도 원주시 우산로 72,127.937064025714,37.3699603567414,원주
505,피자토비,,강원도 강릉시 경강로 2278,128.91061899668802,37.7661411127712,강릉
506,베스킨라빈스,화천점,강원도 화천군 화천읍 중앙로 11,127.70551372856701,38.10481266735521,화천
507,오봉도시락,강원속초점,강원도 속초시 중앙로 17,128.579108911218,38.1984924529484,속초
508,롯데리아,,강원도 양구군 양구읍 양록길 99,127.98949491496201,38.106604773719,양구
509,피자스쿨,홍천점,강원도 홍천군 홍천읍 홍천로5길 15,127.88286731349399,37.6899840446494,홍천
510,도미노피자,대명비발디파크점,강원도 홍천군 서면 한치골길 262,127.687272903554,37.652323738755705,홍천
511,요거프레소,한라비발디점,강원도 원주시 모란1길 75,127.932566517283,37.361712728362996,원주
512,강릉솔향도시락,,강원도 강릉시 율곡로 3203,128.876614336806,37.7834552749995,강릉
513,안녕도시락,,강원도 춘천시 후만로116번길 20,127.757899543118,37.8754266607224,춘천
514,피자에땅,,강원도 양구군 양구읍 관공서로 15-1,127.990110573233,38.1073256233811,양구
515,던킨도너츠,,강원도 춘천시 백령로 156,127.744784368995,37.8747051704676,춘천
516,롯데리아,강릉점,강원도 강릉시 경강로 2106,128.897251872631,37.7551340589726,강릉
517,컨츄리도너츠,,강원도 인제군 인제읍 인제로 204-1,128.172993275452,38.0693027579722,인제
518,맘스터치,삼척점,강원도 삼척시 진주로 39,129.163679040207,37.4442212789679,삼척
519,크리스피크림도넛,춘천명동점,강원도 춘천시 중앙로67번길 18,127.72774545171002,37.877730500702704,춘천
520,롯데리아,강대점,강원도 춘천시 서부대성로 243,127.744995588839,37.8727864361924,춘천
521,오구쌀피자엔치킨,,강원도 원주시 문막읍 건등로 53,127.82093801164301,37.314513294307,원주
522,폴앤메리버거,시내점,강원도 강릉시 중앙시장3길 1,128.895237002968,37.750851505715,강릉
523,피자스쿨,단구점,강원도 원주시 단구로 404,127.95498868474199,37.3208939493613,원주
524,인제군사회복지협의회-독거도시락,,강원도 인제군 인제읍 비봉로44번길 100,128.164927590602,38.0606827633169,인제
525,도미노피자,강릉점,강원도 강릉시 성덕포남로 171-3,128.909473317524,37.76712306078971,강릉
526,양양지역자활센터도시락사업단,,강원도 양양군 양양읍 남문로 35,128.618890080774,38.0747203549573,양양
527,롯데리아,,강원도 홍천군 홍천읍 홍천로6길 24-2,127.88454395618601,37.69094983116271,홍천
528,쏘자,중앙점,강원도 원주시 중앙시장길 11,127.948616316931,37.3502316254499,원주
529,이삭토스트,퇴계점,강원도 춘천시 행촌로 36,127.72462989088699,37.8596395934535,춘천
530,피자알블로,,강원도 강릉시 솔올로 101,128.878895755049,37.770950150217296,강릉
531,배스킨라빈스,춘천이마트점,강원도 춘천시 경춘로 2341,127.71726044510599,37.8639560859478,춘천
532,베스킨라빈스,단관점,강원도 원주시 단구로 369,127.95736810662301,37.3232197099975,원주
533,지정환임실치즈피자,춘천2호점,강원도 춘천시 후석로 266-1,127.752784943733,37.87524483743321,춘천
534,도미노피자,철원점,강원도 철원군 갈말읍 삼부연로7번길 6,127.308757895004,38.14537732423779,철원
535,맥도날드,속초DT점,강원도 속초시 동해대로 4118,128.58390382589,38.1898824548372,속초
536,맥도날드,원주단계점,강원도 원주시 서원대로 154,127.928180433188,37.344174522209286,원주
537,배스킨라빈스,구곡점,강원도 원주시 서원대로 392,127.948448837092,37.3310378412266,원주
538,아를파이,,강원도 춘천시 동내면 외솔길19번길 80-62,127.75840013888799,37.8578846272801,춘천
539,유나인피자큐,,강원도 양구군 양구읍 중앙길 15,127.989437864249,38.1068570472968,양구
540,파파존스피자,원주단구점,강원도 원주시 서원대로 514,127.959499987649,37.3245090544559,원주
541,카이타스,,강원도 홍천군 서면 한치골길 262,127.687272903554,37.652323738755705,홍천
542,피자알볼로,남원주점,강원도 원주시 남부시장길 2,127.95409470061199,37.3437458698097,원주
543,롯데리아,원주터미널점,강원도 원주시 서원대로 171,127.93079833298701,37.3448158723054,원주
544,한솥도시락,강릉여고점,강원도 강릉시 용지로 121,128.903767460187,37.7599317677323,강릉
545,배스킨라빈스31,춘천퇴계점,강원도 춘천시 행촌로 28,127.724222645315,37.8591340631162,춘천
546,쁘레뜨랑피자,우두점,강원도 춘천시 충열로 20,127.73017736414499,37.8997391661813,춘천
547,배스킨라빈스31휘닉스파크점,휘닉스파크점,강원도 평창군 봉평면 태기로 174,128.309595918605,37.57374985338821,평창
548,콜드스톤크리머리,원주씨너스,강원도 원주시 서원대로 165-3,127.929816215945,37.3450045273963,원주
549,배스킨라빈스31,춘천후평점,강원도 춘천시 후석로 296,127.751707855457,37.8778014926794,춘천
550,벅스리아경포대점,경포대점,강원도 강릉시 해안로 558,128.902904393644,37.808413093011,강릉
551,던킨도너츠천곡점,천곡점,강원도 동해시 중앙로 247,129.11353418637898,37.5225367949116,동해
552,한솥도시락,삼척강원대점,강원도 삼척시 언장1길 46,129.1672880171,37.455385707199895,삼척
553,부오나피자,양양점,강원도 양양군 양양읍 양양로 83-1,128.620243235037,38.0743438171414,양양
554,굿모닝피자치킨,,강원도 평창군 대관령면 대관령로 112,128.708767782963,37.6720089927437,평창
555,롯데리아,화천점,강원도 화천군 화천읍 중앙로 16-1,127.705846277986,38.1043449840249,화천
556,임실치즈피자,신사우동점,강원도 춘천시 충열로 39,127.732713957192,37.89949266614421,춘천
557,롯데리아,에코리조트점,강원도 정선군 정선읍 병방치길 235,128.63478897460502,37.3633897980059,정선
558,아이러브피자,,강원도 영월군 영월읍 중앙로 67,128.471213838469,37.183616067086,영월
559,배스킨라빈스31,영월중앙점,강원도 영월군 영월읍 중앙로 17,128.46559434761699,37.1837013603068,영월
560,피자시티,,강원도 원주시 남원로527번길 6-15,127.946473120884,37.3323165466741,원주
561,임실엔치즈피자,강원랜드점,강원도 정선군 사북읍 사북중앙로 35-2,128.81879400575002,37.2272480392339,정선
562,배스킨라빈스31문막휴게소강릉방면,문막휴게소강릉방면,강원도 원주시 문막읍 원문로 1234,127.858209077472,37.335262429330896,원주
563,배스킨라빈스31,강릉교동점,강원도 강릉시 교동광장로 135,128.879603228012,37.7645566339313,강릉
564,문팰리스앤뜨화덕,,강원도 원주시 금불1길 36,127.930558267462,37.348122813546794,원주
565,뽕뜨락피자,태백점,강원도 태백시 대학길 78,128.978230543111,37.1604924419203,태백
566,배스킨라빈스31춘천이마트점,춘천이마트점,강원도 춘천시 경춘로 2341,127.71726044510599,37.8639560859478,춘천
567,맥도날드,춘천명동점,강원도 춘천시 명동길 14,127.727057324948,37.8793777887467,춘천
568,피자체스,,강원도 춘천시 후석로 65,127.743221295547,37.8599969619761,춘천
569,뻔치볼치킨피자족발,,강원도 인제군 남면 신남로58번길 7,128.080349494111,37.9677958406339,인제
570,나뚜루,춘천롯데마트점,강원도 춘천시 방송길 84,127.718061133766,37.86858028828971,춘천
571,KFC,춘천1점,강원도 춘천시 중앙로67번길 4,127.726467607618,37.8789979884425,춘천
572,롯데리아,강릉주문진점,강원도 강릉시 주문진읍 주문로 78,128.826132639877,37.8907703326731,강릉
573,임실치즈피자낙산점,낙산점,강원도 양양군 강현면 일출로 31-12,128.632262756281,38.1174278874087,양양
574,울엄마피자원주점,원주점,강원도 원주시 북원로 2712,127.948038876851,37.3855548469969,원주
575,한솥도시락속초청학점,속초청학점,강원도 속초시 중앙로 57,128.582381803301,38.200881854301,속초
576,돌로미티,,강원도 원주시 우산로 65,127.936624115255,37.369464512073,원주
577,롯데리아,오크밸리리조트ST점,강원도 원주시 지정면 월송석화로 838,127.81689564094201,37.4134758551205,원주
578,피자파티,,강원도 원주시 신림면 신림황둔로 4,128.081915231298,37.2298787509298,원주
579,도미노피자휘닉스파크점,휘닉스파크점,강원도 평창군 봉평면 태기로 174,128.309595918605,37.57374985338821,평창
580,배스킨라빈스31홍천중앙점,홍천중앙점,강원도 홍천군 홍천읍 홍천로6길 26,127.88450968793,37.6911119882258,홍천
581,배스킨라빈스31원주중앙점,원주중앙점,강원도 원주시 원일로 97,127.949271725036,37.3491415629925,원주
582,부오나화덕피자강릉대점,강릉대점,강원도 강릉시 하슬라로206번길 19-14,128.87827967054702,37.7687652635385,강릉
583,코노피자카페원주단구점,원주단구점,강원도 원주시 서원대로 392,127.948448837092,37.3310378412266,원주
584,배스킨라빈스31춘천중앙점,춘천중앙점,강원도 춘천시 중앙로67번길 3,127.726796834563,37.879115886487796,춘천
585,배스킨라빈스31한화워터피아점,한화워터피아점,강원도 속초시 미시령로2983번길 88,128.52786734361402,38.2077347097235,속초
586,한성피자,,강원도 고성군 토성면 토성로 141,128.558747344855,38.25756837747871,고성(강원)
587,엘도라피자,,강원도 횡성군 둔내면 둔내로 36,128.214538299915,37.5125702443724,횡성
588,스테프핫도그치악휴게소춘천방면,치악휴게소춘천방면,강원도 원주시 신림면 다리실2길 32,128.048743816553,37.2568317675516,원주
589,뽕뜨락피자주문진점,주문진점,강원도 강릉시 주문진읍 주문로 140,128.829997708745,37.894779646445606,강릉
590,피자스쿨,문막동화점,강원도 원주시 문막읍 왕건로 77,127.828506566537,37.325220743817795,원주
591,피자스쿨원주태장점,원주태장점,강원도 원주시 흥양로 48,127.952467428822,37.38273624631739,원주
592,배스킨라빈스31,원주단관점,강원도 원주시 단구로 369,127.95736810662301,37.3232197099975,원주
593,피자짱,,강원도 홍천군 남면 양덕원3길 22-7,127.769545264113,37.6173895781411,홍천
594,맥도날드,강릉점,강원도 강릉시 경강로 2097,128.896081032914,37.754971772670395,강릉
595,피자필,,강원도 원주시 판부면 매봉길 52,127.945511060248,37.32063765235221,원주
596,시장피자,횡성점,강원도 횡성군 횡성읍 화성로 34,127.989830178631,37.493535400703394,횡성
597,한솥,,강원도 강릉시 관대길 70,128.87805029528099,37.740718130853296,강릉
598,슈네,,강원도 인제군 북면 만해로 163-11,128.320401903767,38.1917350182781,인제
599,뉴욕핫도그문막휴게소강릉방면,문막휴게소강릉방면,강원도 원주시 문막읍 원문로 1234,127.858209077472,37.335262429330896,원주
600,스테프핫도그,강릉프리머스점,강원도 강릉시 경강로 2120,128.898631873341,37.7557001986643,강릉
601,이삭토스트,한라대점,강원도 원주시 흥업면 사제로 74,127.91224392680701,37.3052265754188,원주
602,차칸치킨앤피자,,강원도 원주시 단관길 198,127.96246006313801,37.3169496646878,원주
603,토마토피자,,강원도 삼척시 도계읍 도계강변길 50-6,129.043889925218,37.2356332213987,삼척
604,봉네골주문도시락,,강원도 태백시 고원로 33-1,128.98790653472602,37.1582585368236,태백
605,도미노피자춘천점,춘천점,강원도 춘천시 춘천로 245,127.740824672444,37.8790845297565,춘천
606,황수철피자정선점,정선점,강원도 정선군 정선읍 봉양6길 33,128.663321382994,37.380561243864996,정선
607,배스킨라빈스31,동해천곡점,강원도 동해시 대학로 31,129.112165045192,37.523279539402,동해
608,뽕뜨락피자,하나로마트점,강원도 삼척시 정상로 82,129.175134306905,37.449027649799,삼척
609,배스킨라빈스31원주태장점,원주태장점,강원도 원주시 북원로 2706,127.94790368761002,37.3850862122217,원주
610,롯데리아문막휴게소강릉방면,문막휴게소강릉방면,강원도 원주시 문막읍 원문로 1234,127.858209077472,37.335262429330896,원주
611,배스킨라빈스31문막휴게소인천방면,문막휴게소인천방면,강원도 원주시 문막읍 개나루길 13,127.817007330921,37.297746498653005,원주
612,런치도시락,,강원도 태백시 문예1길 93,128.989506681404,37.16873403538522,태백
613,송탄햄버거원통점,원통점,강원도 인제군 북면 원통로147번길 40-1,128.20407595716802,38.1236369941516,인제
614,배스킨라빈스31,춘천석사점,강원도 춘천시 지석로 75,127.743694528671,37.85133006672729,춘천
615,이삭토스트한림대점,한림대점,강원도 춘천시 성심로 4-1,127.739059758384,37.883135256670705,춘천
616,오봉도시락,강릉주문진점,강원도 강릉시 주문진읍 장성로 51,128.826331913021,37.8882551284342,강릉
617,미스터피자,춘천명동점,강원도 춘천시 중앙로67번길 9,127.72719583005501,37.8788104621592,춘천
618,임실자연피자,,강원도 강릉시 강릉대로98번길 9,128.88284800471502,37.7539453632604,강릉
619,한솥도시락,횡성점,강원도 횡성군 횡성읍 문정로 20,127.98554477861201,37.489795430164,횡성
620,추억의도시락,강대석사점,강원도 춘천시 공지로252번길 11,127.73669091203399,37.8651634670558,춘천
621,해피리아,남춘천점,강원도 춘천시 터미널길 21,127.719077243913,37.864392928738496,춘천
622,도넛트리씨너스,원주점,강원도 원주시 서원대로 165-3,127.929816215945,37.3450045273963,원주
623,피자세계치킨세계,,강원도 홍천군 홍천읍 희망로 47,127.88788422863001,37.69407972789461,홍천
624,원리치피자패밀리치킨,,강원도 화천군 사내면 사내로7길 7,127.520562920934,38.071903098892605,화천
625,이태리하우스,,강원도 춘천시 후석로45번길 11,127.74087212154899,37.8590457332251,춘천
626,추억찾기,,강원도 춘천시 서부대성로 126-1,127.73399527602699,37.8783664961771,춘천
627,한솥도시락원주시청점,원주시청점,강원도 원주시 일산초교길 79,127.944078959281,37.3499412119642,원주
628,피자스쿨,원주흥업점,강원도 원주시 흥업면 남원로 70,127.92017763085899,37.3020782764208,원주
629,버거킹,강릉교동SK점,강원도 강릉시 하슬라로 159,128.874436857008,37.7643698264843,강릉
630,59피자,혁신점,강원도 원주시 미래로 15,127.98542950985201,37.32606500697271,원주
631,한솥도시락춘천중앙로점,춘천중앙로점,강원도 춘천시 중앙로 82,127.72520738050501,37.878571570749,춘천
632,이삭토스트,혁신점,강원도 원주시 혁신로 37-2,127.97898704404301,37.3238022379056,원주
633,피자필앤치킨하우스,태장점,강원도 원주시 현충로322번길 18,127.94943019485599,37.3821222340236,원주
634,이삭토스트,퇴계한주점,강원도 춘천시 안마산로 213,127.737733597221,37.8499563834241,춘천
635,봉구스밥버거고성점,고성점,강원도 고성군 간성읍 간성로 54,128.46912736863501,38.379508754141,고성(강원)
636,투존치킨&피자효가점,&피자효가점,강원도 동해시 지양길 53,129.103492244319,37.4951402036316,동해
637,미스터피자,속초점,강원도 속초시 중앙로 43,128.581119777547,38.2001132733799,속초
638,목우촌참피자화덕체험장,화덕체험장,강원도 속초시 미시령로2983번길 111,128.52867585314698,38.2105871479139,속초
639,본도시락,시청점,강원도 동해시 천곡1길 3,129.11283810059498,37.5244175211036,동해
640,맘스터치,강릉입암점,강원도 강릉시 성덕포남로 45-8,128.919455620848,37.75931485562671,강릉
641,커피앤토스트,,강원도 횡성군 둔내면 둔내로 61-1,128.217455310691,37.5120693136607,횡성
642,한솥도시락,원주명륜남부점,강원도 원주시 남원로 659-2,127.953858863435,37.34181739646471,원주
643,플레이뱅즈,,강원도 동해시 청운로 78,129.103167466309,37.486898661775605,동해
644,대덕유통,,강원도 춘천시 금강로62번길 7,127.727921298034,37.8793707781988,춘천
645,강원화천지역자활센터행복도시락강원화천점,강원화천점,강원도 화천군 하남면 공단길 80-22,127.66292288665701,38.0531612496171,화천
646,맥도날드동해DT점,동해DT점,강원도 동해시 대학로 2,129.11390570247602,37.5208933966588,동해
647,토마토도시락,상지영서대점,강원도 원주시 상지대길 83,127.92989537389099,37.3691182941434,원주
648,59피자,대관령점,강원도 평창군 대관령면 송천3길 11,128.711472245798,37.6715061462169,평창
649,맘스터치치킨&자이언트피자,,강원도 화천군 상서면 영서로 7724-1,127.66287388504801,38.207671528282496,화천
650,피자나라치킨공주인제원통점,인제원통점,강원도 인제군 북면 원통로 214,128.207123096628,38.1242983954187,인제
651,미스터피자오크밸리,,강원도 원주시 지정면 오크밸리1길 70,127.81903750600401,37.4341503717818,원주
652,푸드홈샌드파인CC,,강원도 강릉시 저동등길 53,128.880989267175,37.7962351129064,강릉
653,피자마루,원주청산사거리점,강원도 원주시 무실로 164,127.94038322375799,37.3416581845161,원주
654,배스킨라빈스31,,강원도 인제군 인제읍 비봉로 12-1,128.172488907713,38.068069128877795,인제
655,버거킹춘천거두GS점,춘천거두GS점,강원도 춘천시 동내면 춘천순환로 59,127.75030389007799,37.8559305200607,춘천
656,베스킨라빈스,,강원도 춘천시 경춘로 2353,127.718613698084,37.863752090584896,춘천
657,에스알에스코리아,,강원도 춘천시 경춘로 2353,127.718613698084,37.863752090584896,춘천
658,명랑핫도그,,강원도 춘천시 명동길 15,127.72709235865801,37.8791255821456,춘천
659,컬투치킨앤피자,앤피자,강원도 평창군 진부면 진부시장뒷길 53,128.558302963734,37.6382076927493,평창
660,쉐이크포테이토,,강원도 평창군 용평면 탑거리길 63,128.463384614113,37.6107938581424,평창
661,뉴욕버거속초점,속초점,강원도 속초시 설악금강대교로 12,128.595728650515,38.1910573879462,속초
662,으뜸도시락,,강원도 강릉시 화부산로8번길 2,128.887090244477,37.7575806696992,강릉
663,배스킨라빈스31철원동송점,철원동송점,강원도 철원군 동송읍 금학로 218,127.21842802076,38.208040715371,철원
664,배스킨라빈스원주중앙원주중앙,원주중앙,강원도 원주시 무실로 3,127.949271955406,37.3487991405566,원주
665,한국맥도날드동해DT점,,강원도 동해시 대학로 2,129.11390570247602,37.5208933966588,동해
666,피자나라치킨공주주문진점,주문진점,강원도 강릉시 주문진읍 주문북로 14,128.83128622612801,37.8961220606902,강릉
667,오보이피자,,강원도 속초시 미시령로3359번길 4,128.574765983244,38.206640539995604,속초
668,피자헐홍천점,홍천점,강원도 홍천군 홍천읍 신장대로 53,127.882152215614,37.6904608935655,홍천
669,롯데리아고성간성점,고성간성점,강원도 고성군 간성읍 간성로 59-1,128.46825596541,38.3792689822879,고성(강원)
670,피자헛,춘천점,강원도 춘천시 금강로 19,127.72485375311301,37.881958609041,춘천
671,수피자동송점,동송점,강원도 철원군 동송읍 북원로 1208,127.229745598729,38.19051973330421,철원
672,파파이스원주메가박스점,원주메가박스점,강원도 원주시 서원대로 165-3,127.929816215945,37.3450045273963,원주
673,코게러지,,강원도 양양군 현북면 동해대로 1269-7,128.729228708975,38.005504363359606,양양
674,다이닝,,강원도 철원군 동송읍 이평3로 139,127.221801112112,38.2076036330579,철원
675,맘스터치,우산점,강원도 원주시 상지대길 56,127.936205929052,37.3699869303137,원주
676,태백산도시락,,강원도 동해시 부곡3길 20-8,129.107354274806,37.5368673817118,동해
677,피자스쿨,,강원도 원주시 무실로 148,127.941353157912,37.34253274884129,원주
678,요거프레소설악해변점,설악해변점,강원도 양양군 강현면 뒷나루2길 5-8,128.622694716883,38.129543107866795,양양
679,솜다리수제버거,,강원도 양양군 강현면 동해대로 3246,128.62225800886802,38.1291580007858,양양
680,이츠굿,무실점,강원도 원주시 능라동길 81,127.929624641359,37.33258707083979,원주
681,베스킨라빈스,횡성점,강원도 횡성군 횡성읍 문정로 21,127.98600841041201,37.489876584113,횡성
682,아이씨지치킨앤버거평릉부곡점,치킨앤버거평릉부곡점,강원도 동해시 부곡3길 20-8,129.107354274806,37.5368673817118,동해
683,도미노피자,횡성점,강원도 횡성군 횡성읍 문정로 1,127.98389354008499,37.490741361435,횡성
684,써니토스트,,강원도 동해시 효자남길 56-1,129.108445787586,37.4913364667229,동해
685,한국맥도날드춘천후평DT점춘천후평DT점,춘천후평DT점,강원도 춘천시 후석로 334,127.74959481915701,37.8807704110431,춘천
686,배스킨라빈스,강릉포남점,강원도 강릉시 하평길 38,128.912666682696,37.7702158969601,강릉
687,토스트맘,,강원도 춘천시 춘주로 150,127.72503287311399,37.8582349267786,춘천
688,봉구스밥버거와수리점,와수리점,강원도 철원군 서면 와수로181번길 7-12,127.438118611862,38.2393899936734,철원
689,봉구스밥버거속초여고점,속초여고점,강원도 속초시 동해대로 4303,128.570635080971,38.1996511453515,속초
690,던킨도너츠,평창애휴게소강릉방면,강원도 평창군 용평면 경강로 2159-58,128.452841105751,37.6054554274288,평창
691,호야미,,강원도 동해시 발한복개로 37,129.10808456678498,37.5510428731502,동해
692,피자나라치킨공주춘천후평점,춘천후평점,강원도 춘천시 춘천로270번길 14-24,127.74266822962299,37.8785119154711,춘천
693,피자나라치킨공주,강원거진점,강원도 고성군 거진읍 거탄진로 132,128.45536642796802,38.446466917601796,고성(강원)
694,베스킨라빈스,,강원도 속초시 중앙로 136,128.59083532075002,38.2028667995778,속초
695,토니버거춘천명동점,춘천명동점,강원도 춘천시 금강로 57,127.728361823025,37.880137669057795,춘천
696,목우촌참피자간동점,간동점,강원도 화천군 간동면 간척월명로 310-7,127.817735818772,38.0551250100111,화천
697,한일도시락,,강원도 홍천군 홍천읍 생명과학관길 50,127.878666979933,37.67912202597761,홍천
698,평창김돌삼,,강원도 평창군 진부면 송정택지1길 6,128.561094873503,37.6357976379863,평창
699,스태프핫도그&커피스푼,,강원도 평창군 대관령면 올림픽로 56,128.700452672841,37.6737886724528,평창
700,피자나라치킨공주,,강원도 삼척시 정상안길 72,129.177479484035,37.4450667321637,삼척
701,꼬마식품,,강원도 원주시 치악로 1773-1,127.955563535975,37.341052102839704,원주
702,피자스쿨주문진점,주문진점,강원도 강릉시 주문진읍 주문로 7,128.82500501637,37.88447119919029,강릉
703,LA피자,,강원도 춘천시 신동면 김유정로 1393,127.713806809797,37.816535352102896,춘천
704,미투치킨앤피자강림점,강림점,강원도 횡성군 강림면 강림시장길 10,128.128194964691,37.360337855143,횡성
705,맥시칸피자삽,,강원도 인제군 기린면 내린천로 4021,128.316482088661,37.9553600425378,인제
706,이삭토스트화천사내점,화천사내점,강원도 화천군 사내면 사내로 38-1,127.52148825690901,38.0715735021841,화천
707,미사랑임실치즈피자,,강원도 정선군 사북읍 파랑새길 10,128.826247360244,37.222510527344106,정선
708,크리스피크림도넛원주단계점,원주단계점,강원도 원주시 서원대로 165,127.92992957698601,37.3444729382159,원주
709,햄버거옛날통닭,,강원도 평창군 봉평면 태기로 399,128.345059358805,37.570092287865705,평창
710,피자와치킨러브레터일산점,일산점,강원도 원주시 단구로75번길 50,127.94279619621,37.3446600813876,원주
711,더쥬스라이크단계점,단계점,강원도 원주시 천사로 64,127.932206875198,37.3473668356054,원주
712,크리스피크림도넛,원주무실점,강원도 원주시 능라동길 59,127.93080786448401,37.3344260416805,원주
713,파파존스원주단계점,원주단계점,강원도 원주시 북원로 2243,127.933291540986,37.3461149062009,원주
714,피자스쿨,단계점,강원도 원주시 백간길 72,127.930589756617,37.350700011726495,원주
715,맘스터치원주중앙점,원주중앙점,강원도 원주시 원일로115번길 10,127.947634674384,37.3496995390719,원주
716,송탄햄버거,,강원도 원주시 상지대길 65,127.93548341752899,37.369896427567,원주
717,버거킹,춘천거두GS점,강원도 춘천시 동내면 춘천순환로 59,127.75021331209601,37.8558312144576,춘천
718,배스킨라빈스31춘천강북점,춘천강북점,강원도 춘천시 충열로 10-13,127.72890225238899,37.900168728405205,춘천
719,맘스터치홍천점,홍천점,강원도 홍천군 홍천읍 홍천로3길 9,127.880158233195,37.689431676813705,홍천
720,뽕뜨락피자,,강원도 평창군 대화면 대화3길 15,128.453316361972,37.500739870075996,평창
721,배스킨라빈스31횡성점,횡성점,강원도 횡성군 횡성읍 문정로 21,127.98600841041201,37.489876584113,횡성
722,빨라진아이스크림Palazzo,,강원도 속초시 중앙로 120,128.589162518358,38.2021454206359,속초
723,엑스오엑스오핫도그앤커피&추암대게,,강원도 동해시 촛대바위길 18,129.158795638801,37.4778242280955,동해
724,이삭토스트,춘천봄내점,강원도 춘천시 퇴계로 223,127.74337044779199,37.8563120685191,춘천
725,피자오레,,강원도 속초시 중앙로129번길 11,128.589867687875,38.2032230429484,속초
726,수제햄버거,,강원도 원주시 강변로 531-1,127.953288730294,37.3512157742894,원주
727,59피자,흥업점,강원도 원주시 흥업면 남원로 20-31,127.91975307741998,37.2982211988114,원주
728,윤정호-수제강정,,강원도 원주시 강변로 531-1,127.953288730294,37.3512157742894,원주
729,피자스콜,,강원도 춘천시 후석로 299,127.75113945464399,37.8778093029247,춘천
730,군항스낵바,,강원도 동해시 대동로 430,129.131078764965,37.503691489853395,동해
731,배스킨라빈스31강원태백점,강원태백점,강원도 태백시 황지로 170,128.991203811315,37.1736669045015,태백
732,베스킨라빈스,,강원도 춘천시 후석로 297,127.751230696948,37.8777193928894,춘천
733,배스킨라빈스31동해나안점,동해나안점,강원도 동해시 청운1길 57,129.109784730674,37.486296057781104,동해
734,파파존스,한솔오크밸리점,강원도 원주시 지정면 오크밸리2길 56,127.807737213398,37.4077213024274,원주
735,만득이핫도그,,강원도 속초시 수복로 202,128.58909840533101,38.2055243761016,속초
736,미스터빅피자앤파스타,,강원도 철원군 서면 와수로173번길 4,127.438268774884,38.2391744809221,철원
737,꿉자,,강원도 화천군 사내면 사내로 37-2,127.52117007950001,38.0714280475306,화천
738,미스터빅,,강원도 화천군 화천읍 중앙로4길 13-10,127.70573445851299,38.1037950984045,화천
739,피자커피,,강원도 동해시 청운1길 29,129.10352868485,37.4876251363099,동해
740,피자와치킨의러브레터,,강원도 삼척시 도계읍 도계로 323,129.045282898516,37.23775651431421,삼척
741,명랑시대핫도그,,강원도 강릉시 신대학길 22,128.89556035766302,37.7532007171315,강릉
742,뜨겁개핫도그,,강원도 강릉시 율곡초교길 35,128.878814412082,37.7659951426959,강릉
743,무코로케,,강원도 동해시 발한복개로 37,129.10808456678498,37.5510428731502,동해
744,The토스트,,강원도 원주시 개운로 90,127.959706576838,37.339116192667,원주
745,배스킨라빈스31,평창알펜시아점,강원도 평창군 대관령면 솔봉로 325,128.69152579702498,37.6646596898363,평창
746,배스킨라빈스31원주혁신점,원주혁신점,강원도 원주시 혁신로 37-3,127.97937072633499,37.3236491157147,원주
747,배스킨라빈스31원주터미널점,원주터미널점,강원도 원주시 서원대로 171,127.93079833298701,37.3448158723054,원주
748,베리원치킨임실피자,,강원도 철원군 갈말읍 두루미로 94,127.32109058963499,38.184767634238796,철원
749,크리스피크림도넛속초점,속초점,강원도 속초시 중앙로 135-1,128.590597814368,38.2031472949515,속초
750,토마토도시락,와수점,강원도 철원군 서면 와수로 157,127.437434163053,38.2377829980096,철원
751,배스킨라빈스31,강원화천점,강원도 화천군 화천읍 중앙로 11,127.70551372856701,38.10481266735521,화천
752,59피자강릉유천점,강릉유천점,강원도 강릉시 선수촌로 55,128.869609890049,37.7563323819325,강릉
753,이가꽈배기,,강원도 원주시 중앙로 145,127.94913486678401,37.3512320834815,원주
754,배스킨라빈스31원주홈플러스점,원주홈플러스점,강원도 원주시 치악로 1489,127.96729993077,37.3177170503153,원주
755,명랑시대쌀핫도그,원주중앙점,강원도 원주시 중앙시장길 2-6,127.94881963246901,37.350024457878106,원주
756,던킨도너츠인제원통점,인제원통점,강원도 인제군 인제읍 인제로206번길 38,128.175129023144,38.066407384322794,인제
757,배스킨라빈스31,강릉CGV점,강원도 강릉시 경강로 2120,128.898631873341,37.7557001986643,강릉
758,배스킨라빈스31강릉포남점,강릉포남점,강원도 강릉시 하평길 38,128.912666682696,37.7702158969601,강릉
759,배스킨라빈스31영주구곡점,영주구곡점,강원도 원주시 서원대로 392,127.948448837092,37.3310378412266,원주
760,던킨도너츠한화평창점,한화평창점,강원도 평창군 봉평면 태기로 174,128.309595918605,37.57374985338821,평창
761,던킨도너츠문막휴게소강릉방면점,문막휴게소강릉방면점,강원도 원주시 문막읍 원문로 1234,127.858209077472,37.335262429330896,원주
762,배스킨라빈스31,비발디파크점,강원도 홍천군 서면 한치골길 262,127.687272903554,37.652323738755705,홍천
763,던킨도너츠,평창알펜시아점,강원도 평창군 대관령면 솔봉로 325,128.69152579702498,37.6646596898363,평창
764,이삭토스트,원주롯데마트점,강원도 원주시 봉화로 1,127.92762594653999,37.3456790421194,원주
765,본스치킨영월점,영월점,강원도 영월군 영월읍 은행나무길 72,128.463501193567,37.1784469688436,영월
766,피자나라치킨공주,강원화천점,강원도 화천군 화천읍 상승로 41,127.703905910682,38.1048266468813,화천
767,명랑시대핫도그,단구점,강원도 원주시 남원로534번길 32,127.949645860755,37.329758773682705,원주
768,콜드스톤크리머리춘천명동,,강원도 춘천시 금강로 58,127.728112792411,37.8798487653376,춘천
769,도미노피자영월점,영월점,강원도 영월군 영월읍 하송로 138,128.45724653904,37.177723330498,영월
770,땡순이토스트,,강원도 동해시 발한로 107-1,129.10162668350202,37.5421019303226,동해
771,도미노피자,,강원도 원주시 미래로 37,127.987663556152,37.327056487977295,원주
772,비엔나핫도그,,강원도 태백시 감천로 21,128.988700414064,37.159567529035286,태백
773,버거킹,속초디티점,강원도 속초시 동해대로 4059,128.590668264438,38.1892539814337,속초
774,피자투어,,강원도 고성군 토성면 청간길 11-15,128.556364705555,38.2672740403982,고성(강원)
775,배스킨라빈스31강원인제점,강원인제점,강원도 인제군 인제읍 비봉로 12,128.17240923553499,38.06811429577861,인제
776,던킨도너츠설악워터피아점,설악워터피아점,강원도 속초시 미시령로2983번길 111,128.52867585314698,38.2105871479139,속초
777,던킨도너츠원주혁신점,원주혁신점,강원도 원주시 미래로 37,127.987663556152,37.327056487977295,원주
778,한국맥도날드동해DT점,,강원도 동해시 한섬로 93,129.11400709970502,37.5208654090335,동해
779,배스킨라빈스31강원양구점,강원양구점,강원도 양구군 양구읍 중앙길 9,127.989380818359,38.1070732810254,양구
780,배스킨라빈스31영월점,영월점,강원도 영월군 영월읍 중앙1로 23,128.465263374731,37.1829907681755,영월
781,이삭토스트,오크밸리점,강원도 원주시 지정면 월송석화로 838,127.81689564094201,37.4134758551205,원주
782,던킨도너츠화천점,화천점,강원도 화천군 화천읍 상승로 41,127.703905910682,38.1048266468813,화천
783,던킨도너츠,하이원리조트점,강원도 정선군 고한읍 하이원길 500,128.83946206930202,37.2039539298278,정선
784,귀래백련사부설공양간,,강원도 원주시 중평길 78-12,127.95349218573601,37.3507652986278,원주
785,쑤와리질러현리점,현리점,강원도 인제군 기린면 내린천로 4042,128.31775178733102,37.9568883462156,인제
786,아이러브피자,,강원도 강릉시 주문진읍 연주로 309,128.826285370721,37.8800202566092,강릉
787,맘스터치원주연세대점,원주연세대점,강원도 원주시 흥업면 연세대길 1,127.904318199294,37.2748346422844,원주
788,맘스터치강원대점,강원대점,강원도 춘천시 강원대학길 1,127.74836495685499,37.8680272384059,춘천
789,맘스터치설악워터피아점,설악워터피아점,강원도 속초시 미시령로2983번길 111,128.52867585314698,38.2105871479139,속초
790,맘스터치휘닉스파크점,휘닉스파크점,강원도 평창군 봉평면 태기로 174,128.309595918605,37.57374985338821,평창
791,피자나라치킨공주,,강원도 정선군 고한읍 고한6길 23,128.854676218307,37.200484010267296,정선
792,도미노피자,하이원리조트점,강원도 정선군 고한읍 하이원길 500,128.83946206930202,37.2039539298278,정선
793,피자헤븐강릉점,강릉점,강원도 강릉시 토성로 128,128.890771573287,37.754156050325705,강릉
794,명랑시대쌀핫도그영월점,,강원도 영월군 영월읍 단종로 4,128.468354110161,37.1837715857286,영월
795,오봉도시락,홍천점,강원도 홍천군 홍천읍 홍천로3길 7,127.87996588225201,37.689179184619604,홍천
796,샌드730,,강원도 강릉시 선수촌로 64-3,128.870671762731,37.7568831763668,강릉
797,미스터피자,하이원리조트,강원도 정선군 고한읍 하이원길 500,128.83946206930202,37.2039539298278,정선
798,피자·치킨샵,,강원도 인제군 기린면 내린천로 3881,128.314103684327,37.9446443232735,인제
799,착한수제버거앤컵밥,,강원도 철원군 서면 와수로181번길 25-9,127.43795626198,38.2397045539642,철원
800,피자투어,정동진점,강원도 강릉시 강동면 헌화로 975,129.039642379969,37.6855677845377,강릉
801,맘스터치원주흥업점,원주흥업점,강원도 원주시 흥업면 남원로 85,127.919938977785,37.3037451851204,원주
802,GS25,속초만리점,강원도 속초시 만리공원길 9,128.571421281367,38.2009086800109,속초
803,아리랑수제핫도그,,강원도 강릉시 신대학길 32,128.89646318703,37.7537254564213,강릉
804,피자나라치킨공주조양점,조양점,강원도 속초시 조양로 111,128.588275147272,38.1869324791025,속초
805,피자나라치킨공주,,강원도 화천군 화천읍 상승로 41,127.703952029459,38.104700624097795,화천
806,피자의땅,,강원도 동해시 청운1길 29,129.10352868485,37.4876251363099,동해
807,롯데리아,,강원도 화천군 화천읍 중앙로4길 13-10,127.70573445851299,38.1037950984045,화천
808,요거프레소,강원간성점,강원도 고성군 간성읍 간성로 66,128.467708801665,38.3796135259295,고성(강원)
809,핫도그집,,강원도 철원군 동송읍 금학로218번길 12,127.219462695029,38.208453030865,철원
810,석봉토스트,,강원도 평창군 진부면 진부시장안길 3,128.557559352266,37.6372560890061,평창
811,옛날과자가게,,강원도 인제군 인제읍 비봉로6번길 10,128.171201463324,38.06824220110301,인제
812,고호,,강원도 동해시 발한복개로 37,129.10808456678498,37.5510428731502,동해
813,핫도그앤핫바,,강원도 강릉시 용지로 42,128.910703723948,37.7554633718149,강릉
814,이삭토스트,동해천곡점,강원도 동해시 대학로 14,129.113589332685,37.5216802859484,동해
815,아이러브피자영월점,영월점,강원도 영월군 영월읍 은행나무길 72,128.463501193567,37.1784469688436,영월
816,열꼬치,,강원도 원주시 문막읍 건등로 41,127.819584848938,37.3142228820062,원주
817,핫도그집,본점,강원도 원주시 건강로 17-3,127.98867929178002,37.32590316170629,원주
818,강릉땡초숯불고기&도시락,,강원도 강릉시 경강로 2150,128.900870181742,37.7577915003162,강릉
819,요거프레소,춘천온의점,강원도 춘천시 춘천로17번길 31,127.718566033725,37.8673200548834,춘천
820,맘스터치인제읍점,인제읍점,강원도 인제군 인제읍 비봉로 7,128.17254699232902,38.0685375637739,인제
821,문막휴게소던킨도너츠,,강원도 원주시 문막읍 원문로 1234,127.858209077472,37.335262429330896,원주
822,송탄햄버거,,강원도 홍천군 홍천읍 꽃뫼로 112,127.886130729,37.691392892810896,홍천
823,던킨,,강원도 화천군 화천읍 중앙로4길 13-10,127.70573445851299,38.1037950984045,화천
824,파파이스휘닉스파크점,휘닉스파크점,강원도 평창군 봉평면 태기로 174,128.309595918605,37.57374985338821,평창
825,이삭토스트휘닉스파크점,휘닉스파크점,강원도 평창군 봉평면 태기로 174,128.309595918605,37.57374985338821,평창
826,또래오래치킨목우촌참피자,,강원도 횡성군 횡성읍 북천서로11번길 27,127.991865818883,37.49339138402029,횡성
827,맘스터치평창점,평창점,강원도 평창군 평창읍 백오로 54,128.392948373201,37.3676663643854,평창
828,리핫핫도그삼척대학로점,삼척대학로점,강원도 삼척시 대학로 27,129.16317224882098,37.4436045443819,삼척
829,명랑시대쌀핫도그,,강원도 원주시 능라동길 48-1,127.92971348461599,37.334128029001796,원주
830,아이린케이크,,강원도 춘천시 근화길15번길 22,127.717625670082,37.87248971093379,춘천
831,타르타르,,강원도 원주시 능라동길 30,127.928585795682,37.33326228413979,원주
832,아리힐스카페,,강원도 정선군 정선읍 병방치길 235,128.63478897460502,37.3633897980059,정선
833,브래뉴피자,,강원도 평창군 평창읍 백오로 92,128.395059336949,37.367614277627396,평창
834,한솥도시락,동해시청점,강원도 동해시 천곡로 67,129.112592931654,37.5239062377934,동해
835,도미노피자,태백점,강원도 태백시 황지로 36,128.99101695393,37.1619451169169,태백
836,낭만핫도그원주중앙점,원주중앙점,강원도 원주시 원일로 106-3,127.949090787068,37.3496461079162,원주
837,쏭스핫도그,춘천거두점,강원도 춘천시 동내면 공지로 70-51,127.75150107743,37.8547527005037,춘천
838,본도시락,정선고한점,강원도 정선군 고한읍 고한로 34,128.843056677373,37.2080915192625,정선
839,빅스타피자,강대후문점,강원도 춘천시 서부대성로227번길 13,127.744332182918,37.87398336627079,춘천
840,더롤스철판아이스크림,,강원도 속초시 중앙로147번길 16,128.590163666904,38.2045279605443,속초
841,피자량쥬,,강원도 원주시 봉화로 1,127.92762594653999,37.3456790421194,원주
842,명랑시대쌀핫도그천곡점,천곡점,강원도 동해시 동굴로 57,129.11000873815502,37.5182359725683,동해
843,이룸,,강원도 원주시 북원로 2680,127.947363356819,37.3826259520316,원주
844,요거프레소,춘천효자동점,강원도 춘천시 공지로 332-1,127.729322206379,37.8693185269597,춘천
845,쥬씨88핫도그강릉여고점,강릉여고점,강원도 강릉시 옥천로 34,128.901969954894,37.75863905843672,강릉
846,미스터피자,오크밸리점,강원도 원주시 지정면 오크밸리1길 70,127.81903750600401,37.4341503717818,원주
847,피자왕족발킹,관설점,강원도 원주시 단관초교길 9,127.96551736153499,37.3175273098035,원주
848,조앤서,,강원도 속초시 번영로 39,128.582476217211,38.2041338857002,속초
849,행복음료도시락,,강원도 원주시 우산초교길 75-1,127.934198070785,37.3678772357626,원주
850,럭키하우스,,강원도 강릉시 경강로2046번길 8,128.892775421518,37.7509242386536,강릉
851,앤티앤스,,강원도 속초시 설악금강대교로 12,128.595728650515,38.1910573879462,속초
852,cafe.조앤서,,강원도 속초시 번영로 39,128.582476217211,38.2041338857002,속초
853,과일짱과일도시락,,강원도 원주시 남산로48번길 31,127.947877197455,37.34176084570271,원주
854,쥬씨팔팔핫도그,,강원도 원주시 능라동길 74,127.92991733590901,37.33335319171921,원주
855,롯데리아혁신도시점,혁신도시점,강원도 원주시 건강로 17-2,127.988115081932,37.3260112402496,원주
856,베스킨라빈스,,강원도 양양군 손양면 선사유적로 678,128.666210973169,38.088255729588106,양양
857,청춘감성쌀핫도그,,강원도 강릉시 하평2길 7,128.912188943523,37.7710575431045,강릉
858,한국맥도날드춘천후평DT점,,강원도 춘천시 후석로 334,127.749458038531,37.8808782434195,춘천
859,쏭스핫도그,일산점,강원도 원주시 무실로12번길 39,127.94764560515301,37.350213177621995,원주
860,쌀핫도그5형제,,강원도 원주시 능라동길 48,127.92993896860399,37.334362452396995,원주
861,이삭토스트춘천애막골점,춘천애막골점,강원도 춘천시 후석로186번길 22-1,127.754766412493,37.8673018999043,춘천
862,맘도시락,,강원도 춘천시 지석로 74-11,127.74325635732,37.8498874601131,춘천
863,낭만핫도그태백점,태백점,강원도 태백시 황지로 171,128.990674027049,37.1736262798704,태백
864,뽕뜨락피자,혁신도시점,강원도 원주시 건강로 17,127.987517044142,37.325966122895004,원주
865,반올림피자샵홍천점,홍천점,강원도 홍천군 홍천읍 갈마로7길 8,127.901909528538,37.695254593122,홍천
866,쏭스핫도그춘천장학점,춘천장학점,강원도 춘천시 동면 춘천로449번길 10,127.754396026954,37.8932777716754,춘천
867,영월한솥도시락,,강원도 영월군 영월읍 하송안길 124-1,128.46923011704598,37.1833716231169,영월
868,낭만핫도그영월점,,강원도 영월군 영월읍 하송안길 122,128.46910573085898,37.1832910139948,영월
869,피자토비서부점,서부점,강원도 강릉시 범일로 684,128.886668391327,37.7460057014081,강릉
870,피자나라치킨공주,철원점,강원도 철원군 동송읍 금학로 183,127.21977105063999,38.2052386533313,철원
871,GS25,속초보광병원점,강원도 속초시 중앙로 11,128.578706263782,38.19810702100121,속초
872,요거프레소춘여고사거리점,춘여고사거리점,강원도 춘천시 동면 만천양지길 60,127.76150521837499,37.8852912694944,춘천
873,김씨네피자집,,강원도 강릉시 경강로 2112,128.898250655227,37.755144471407796,강릉
874,처갓집양념치킨,문혜리점,강원도 철원군 갈말읍 두루미로 100-1,127.320629920062,38.1852064442997,철원
875,봉구스밥버거사내점,사내점,강원도 화천군 사내면 사내로 36-2,127.521479090212,38.0712310874578,화천
876,킹콩쥬스&청춘감성쌀핫도그,,강원도 태백시 황지로 23,128.990150669916,37.1611323533873,태백
877,맘스터치사내점,사내점,강원도 화천군 사내면 사내로 42,127.5213159509,38.0717800290104,화천
878,부리또인,영동대점,강원도 강릉시 공제로359번길 54,128.85645603407698,37.74838255502471,강릉
879,투빅버거,,강원도 양구군 양구읍 중심로 199,127.988742103762,38.10804629638321,양구
880,크리스피크림도넛속초점,속초점,강원도 속초시 중앙로 135,128.590494621939,38.2030937558495,속초
881,킹콩쥬스엔청춘핫도그,,강원도 정선군 정선읍 정선로 1339,128.662807090074,37.3798612761094,정선
882,꿉자사내점,사내점,강원도 화천군 사내면 사내로 37-1,127.521045182286,38.0713554592098,화천
883,명랑시대쌀핫도그화천점,화천점,강원도 화천군 화천읍 상승로 42-19,127.704625643407,38.1044860809858,화천
884,이삭토스트화천사내점,화천사내점,강원도 화천군 사내면 사내로 36-2,127.521479090212,38.0712310874578,화천
885,맘스터치와수리점,와수리점,강원도 철원군 서면 와수로 167-2,127.438020936117,38.2387228122229,철원
886,청춘감성쌀핫도그양양점,양양점,강원도 양양군 양양읍 남문7길 15-5,128.622657912821,38.0741508524046,양양
887,강정구의피자생각원주점,원주점,강원도 원주시 황소마을길 28-1,127.944228196295,37.3312972504012,원주
888,롯데리아,설악산점,강원도 속초시 설악산로 1042,128.488772997534,38.1739732736591,속초
889,롯데리아경포해수욕장점,경포해수욕장점,강원도 강릉시 창해로 441,128.912482229209,37.8004554269446,강릉
890,킹콩쥬스엔청춘핫도그,,강원도 철원군 서면 와수로 161,127.437625505318,38.238153310496,철원
891,씨스타한림교동점,한림교동점,강원도 춘천시 삭주로 12,127.73296127313,37.8813916093085,춘천
892,피자나라치킨공주,,강원도 고성군 간성읍 간성로 33,128.471286536571,38.3788874511403,고성(강원)
893,아이러브피자,,강원도 속초시 청대로204번길 39,128.58006279681499,38.189207744263,속초
894,미투치킨피자,,강원도 원주시 나비허리길 50,127.958044828233,37.3237335879096,원주
895,햄버거앤토스트,,강원도 강릉시 경강로 2113,128.897726257615,37.7558873046063,강릉
896,피자왕족발킹,,강원도 횡성군 횡성읍 문정로19번길 31,127.98934439103,37.4900120956303,횡성
897,피자와치킨의러브레터,도계점,강원도 삼척시 도계읍 도계로 323-3,129.045308048837,37.2379455208991,삼척
898,부오나피자,천곡점,강원도 동해시 천곡로 36,129.109159177387,37.524271921857704,동해
899,던킨도너츠동해,,강원도 동해시 중앙로 249,129.113469532306,37.522753654330295,동해
900,석봉토스트&청학빈대떡,,강원도 속초시 번영로 39,128.582476217211,38.2041338857002,속초
901,부오나피자,주문진점,강원도 강릉시 주문진읍 연주로 291-6,128.82645042564,37.878514416144,강릉
902,비비큐피자큐유나인,,강원도 양구군 양구읍 중앙길 15,127.989437864249,38.1068570472968,양구
903,본도시락,원주혁신도시점,강원도 원주시 양지로 16,127.980318278724,37.3246585268291,원주
904,김씨네피자집,,강원도 강릉시 경강로 2112,128.897892658253,37.7555706794721,강릉
905,퀴즈노스원주세브란스병원점,세브란스병원점,강원도 원주시 일산로 20,127.94670951420099,37.34912241436579,원주
906,부오나피자,강릉점,강원도 강릉시 하평3길 36,128.91541601670798,37.772257902988294,강릉
907,롯데리아,홈플러스원주점,강원도 원주시 단구로 411,127.95681784161002,37.3186328287,원주
908,빅스타피자,강대정문석사점,강원도 춘천시 벌말길 100,127.74097580313101,37.861893219432794,춘천
909,아이러브피자,,강원도 원주시 단관초교길 9,127.96551736153499,37.3175273098035,원주
910,배스킨라빈스원주혁신,,강원도 원주시 혁신로 37-3,127.97937072633499,37.3236491157147,원주
911,"호떡,핫도그",,강원도 횡성군 안흥면 영동고속도로 154,128.134541446289,37.462560803977496,횡성
912,피자넘버원,,강원도 춘천시 공지로252번길 22,127.738008188548,37.86548176589071,춘천
913,롯데리아원주일산점,원주일산점,강원도 원주시 천사로 213,127.947599484494,37.3516098802281,원주
914,커피홀,삼척해상케이블카용화역점,강원도 삼척시 근덕면 삼척로 2154-31,129.308370471887,37.28984542462079,삼척
915,치킨닷컴.엘리트피자,,강원도 원주시 단구초교길 11,127.96461193553301,37.3235374885408,원주
916,토마토도시락,화천점,강원도 화천군 화천읍 상승로 42-19,127.704625643407,38.1044860809858,화천
917,시카고피자,동송점,강원도 철원군 동송읍 금학로 208,127.21888052869801,38.20736800711021,철원
918,롯데리아,내린천휴게소서울방면,강원도 인제군 상남면 서울양양고속도로 117,128.288109098452,37.9164188219445,인제
919,던킨도너츠,내린천휴게소서울방면,강원도 인제군 상남면 서울양양고속도로 117,128.288109098452,37.9164188219445,인제
920,롯데리아,오크밸리리조트ST점,강원도 원주시 지정면 오크밸리2길 58,127.80894554773501,37.4078584262811,원주
921,오르새피자남원주점,남원주점,강원도 원주시 남원로 568,127.948401313671,37.3345251332965,원주
922,토마토도시락양구점,양구점,강원도 양구군 양구읍 양록길 61,127.987567805611,38.106739734931395,양구
923,해상휴게음식점,,강원도 삼척시 근덕면 장호항길 12-10,129.318743358044,37.28840574553311,삼척
924,59피자,,강원도 원주시 늘품로 38,127.95159084065901,37.3234337554442,원주
925,요거프레소,,강원도 양양군 현남면 인구중앙길 99,128.75892649416,37.9735113727585,양양
926,바른생활샌드위치춘천,,강원도 춘천시 춘천로 286-1,127.744980057443,37.8805893103955,춘천
927,베로나피자,,강원도 홍천군 두촌면 아홉사리로 43,127.99656739638,37.8042503518568,홍천
928,몰리제피자,단관점,강원도 원주시 남산고개길 40-1,127.951092555964,37.3436365333558,원주
929,롯데리아,속초점,강원도 속초시 중앙로 124,128.589642547622,38.2022060787079,속초
930,이삭토스트,태백점,강원도 태백시 하장성3길 15,129.022119853416,37.102955861394,태백
931,아시안피자,퇴계점,강원도 춘천시 후석로 325,127.747788465619,37.880433174966605,춘천
932,마니커랜드치킨피자,,강원도 정선군 북평면 북평6길 5,128.666591507957,37.4488902157444,정선
933,파파존스피자,춘천점,강원도 춘천시 후석로 342,127.74911547396098,37.881328027946,춘천
934,아시안피자,,강원도 춘천시 후석로 262-1,127.752797484958,37.8748934624538,춘천
935,평창휴게소던킨도너츠,,강원도 평창군 용평면 경강로 2159-58,128.452841105751,37.6054554274288,평창
936,명랑시대쌀핫도그,혁신도시점,강원도 원주시 혁신로 37-1,127.97863719813401,37.324000420754,원주
937,59피자,중앙점,강원도 원주시 무실로 9-1,127.949012494262,37.348582762145206,원주
938,아이러브피자,양양점,강원도 양양군 양양읍 내곡길 18,128.611002714443,38.0760770639885,양양
939,피자스쿨,단계점,강원도 원주시 남산로 141,127.938503739588,37.348983266761714,원주
940,한솥원주상지대점,원주상지대점,강원도 원주시 상지대길 62,127.935754257338,37.3700497634551,원주
941,청춘쌀핫도그홍천점,홍천점,강원도 홍천군 홍천읍 홍천로6길 24-2,127.88454395618601,37.69094983116271,홍천
942,피자알볼로,속초점,강원도 속초시 먹거리5길 6-1,128.573632440751,38.194600113867295,속초
943,피자꾼,춘천점,강원도 춘천시 후석로 269-1,127.752283618279,37.8755951850454,춘천
944,마마수니수제도시락,,강원도 원주시 봉바위길 33,127.93198423876001,37.3314079907679,원주
945,피자앤치킨하우스,,강원도 원주시 현충로322번길 13,127.94884295397699,37.3821850589516,원주
946,설악워터피아베스킨라빈스,,강원도 속초시 미시령로2983번길 88,128.52786734361402,38.2077347097235,속초
947,배스킨라빈스31,무실점,강원도 원주시 능라동길 51,127.93014165840201,37.334840162687996,원주
948,림디쉬집피자,,강원도 고성군 죽왕면 동해대로 5905,128.523979482112,38.3294449864858,고성(강원)
949,부엉이돈가스,앤버거원주혁신점,강원도 원주시 양지로 26,127.981593337818,37.3246407097189,원주
950,투빅버거춘천교대점,춘천교대점,강원도 춘천시 공지로 114,127.748051324578,37.8566555580312,춘천
951,피자나라치킨공주,,강원도 강릉시 강릉대로469번길 21,128.911944136812,37.7760781077886,강릉
952,청춘감성쌀핫도그춘천CGV점,춘천CGV점,강원도 춘천시 지석로 75,127.743694528671,37.85133006672729,춘천
953,피자나라치킨공주석사점,석사점,강원도 춘천시 효석로67번길 20,127.73937280493,37.8620428576574,춘천
954,던킨도너츠,원주혁신하나로마트점,강원도 원주시 양지로 26,127.981593337818,37.3246407097189,원주
955,마마피자,,강원도 횡성군 둔내면 고원로 451,128.250118479578,37.490135301900004,횡성
956,본도시락,강릉노암점,강원도 강릉시 강변로 296-1,128.90064641593,37.7505670176334,강릉
957,롯데리아,춘천장학점,강원도 춘천시 동면 춘천순환로 600,127.75736623398001,37.8924639969616,춘천
958,파파존스피자,평창올림픽점,강원도 평창군 대관령면 송천2길 7-5,128.71165995215,37.6709824078871,평창
959,정도너츠,영월점,강원도 영월군 영월읍 중앙1로 31,128.465629849228,37.1839805708706,영월
960,"삼다리치킨,피자",,강원도 원주시 상지대길 68,127.93518965695,37.370139566307,원주
961,던킨도넛내린천휴게소점,,강원도 인제군 상남면 서울양양고속도로 117-2,128.288109098452,37.9164188219445,인제
962,요거프레소,향교점,강원도 원주시 명륜로 10,127.94862522461,37.337156483450606,원주
963,오르새피자,강원대학교점,강원도 춘천시 백령로 212,127.74951431164101,37.8776887229813,춘천
964,강원랜드패스트푸드점,,강원도 정선군 사북읍 하이원길 265,128.82144459089199,37.2118838367481,정선
965,달이봉이,,강원도 춘천시 우석로 29,127.74921271410601,37.862703957188,춘천
966,낭만핫탕,평창점,강원도 평창군 평창읍 평창중앙로 23,128.395316213887,37.367081768339204,평창
967,유로코피자,강릉점,강원도 강릉시 원대로17번길 5,128.881038498366,37.7563826547301,강릉
968,맘스터치,유천점,강원도 강릉시 선수촌로 69,128.87002874345302,37.7572122932549,강릉
969,한끼식사,,강원도 정선군 여량면 노추산로 745,128.73041081172198,37.517057615294796,정선
970,스테프핫도그설악워터피아아쿠아동,,강원도 속초시 미시령로2983번길 88,128.52786734361402,38.2077347097235,속초
971,핫도그집,,강원도 원주시 행구로 68,127.964727646319,37.3415237686066,원주
972,스테프핫도그설악워터피아스파동,,강원도 속초시 미시령로2983번길 102,128.52725947193994,38.2089447417747,속초
973,미국피자공방,,강원도 강릉시 경강로 2046-10,128.89287777889,37.7518875573105,강릉
974,피자마루,,강원도 양구군 양구읍 중심로 187,127.98959749487499,38.1069291411613,양구
975,수제돈까스매니아,,강원도 동해시 동해항2길 10,129.12723722965902,37.4986823713616,동해
976,퀴즈노스내린천휴게소점,,강원도 인제군 상남면 서울양양고속도로 117-2,128.288109098452,37.9164188219445,인제
977,피자마루,원주태장점,강원도 원주시 흥양로 96,127.957571323083,37.3831887408284,원주
978,롯데리아,내린천휴게소점,강원도 인제군 상남면 서울양양고속도로 117-2,128.288109098452,37.9164188219445,인제
979,브로피자,,강원도 춘천시 효석로89번길 27,127.741150279389,37.8607492938331,춘천
980,롯데리아롯데속초리조트,,강원도 속초시 대포항길 186,128.613393376435,38.18068636075761,속초
981,피자명뿅가곱창,뿅가곱창,강원도 속초시 중앙로 61,128.582772206626,38.2011592177712,속초
982,쿠버타코홍천,대명비발디점,강원도 홍천군 서면 한치골길 262,127.687272903554,37.652323738755705,홍천
983,코끼리가반한핫도그,,강원도 원주시 문막읍 원문로 1883,127.815856810782,37.3069991954739,원주
984,아뜰리에마노루루라라도시락,,강원도 원주시 혁신로 37-3,127.97937072633499,37.3236491157147,원주
985,롯데리아,롯데속초리조트점,강원도 속초시 대포항길 186,128.613393376435,38.18068636075761,속초
986,빅스타피자,,강원도 강릉시 솔올로 63,128.878492591187,37.7675743289745,강릉
987,밥박스,,강원도 원주시 흥업면 북원로 1416,127.908329407111,37.2774150276303,원주
988,스테프핫도그,화천점,강원도 화천군 화천읍 상승로 42-11,127.70447690417,38.1046118460045,화천
989,시장피자,,강원도 원주시 남원로 496-1,127.94857609992201,37.3264422099227,원주
990,피자스쿨,춘천장학점,강원도 춘천시 동면 춘천로449번길 30-1,127.754129008038,37.8949351023064,춘천
991,한솥도시락,원주상지대점,강원도 원주시 상지대길 62,127.935754257338,37.3700497634551,원주
992,배스킨라빈스31,양양쏠비치점,강원도 양양군 손양면 선사유적로 678,128.666210973169,38.088255729588106,양양
993,낭만핫탕,원주무실점,강원도 원주시 능라동길 60,127.930289023606,37.33412836948421,원주
994,버거킹,오션월드,강원도 홍천군 서면 한치골길 264,127.68583971510901,37.6481840552354,홍천
995,파머스키친,2호점,강원도 양양군 현남면 동산큰길 44-39,128.762150461192,37.98039215688389,양양
996,던킨도너츠,설악워터피아점,강원도 속초시 미시령로2983번길 16,128.533953806073,38.204661905596,속초
997,삼다리치킨앤피자,상지대점,강원도 원주시 상지대길 68,127.93518965695,37.370139566307,원주
998,명랑시대쌀핫도그,우산점,강원도 원주시 우산로 71,127.93670272392099,37.369969175035294,원주
999,또래오래,목우촌참피자,강원도 횡성군 횡성읍 북천서로11번길 27,127.991865818883,37.49339138402029,횡성
1000,한솥,도시락,강원도 원주시 남원로 659-2,127.953858863435,37.34181739646471,원주
1001,명랑시대쌀핫도그기업도시점,,강원도 원주시 지정면 가곡로 70,127.877163085055,37.3800237432862,원주
1002,명랑쌀핫도그,동해천곡점,강원도 동해시 대학로 31,129.112165045192,37.523279539402,동해
1003,코끼리가반한핫도그,간현점,강원도 원주시 지정면 소금산길 36,127.831869642157,37.3654872338485,원주
1004,피치버스,원통점,강원도 인제군 북면 원통로147번길 42,128.204212872812,38.1236547760823,인제
1005,플라잉볼,강릉세인트존스점,강원도 강릉시 창해로 307,128.920907730533,37.7912986352446,강릉
1006,지정환피자,단계점,강원도 원주시 천사로 71,127.93286125188,37.3476735868755,원주
1007,석봉토스트,인제서화점,강원도 인제군 서화면 천도로 152,128.210139741006,38.2256086154676,인제
1008,피자파는집,동해점,강원도 동해시 해안로 97-1,129.124544005387,37.51289946171789,동해
1009,레거스타버거,,강원도 원주시 동부순환로 288,127.97516747161501,37.3412290530249,원주
1010,피제이피자,원주1호점,강원도 원주시 우산로 33,127.93611783632099,37.36735564491421,원주
1011,한솥,도시락속초여고옆점,강원도 속초시 동해대로 4335,128.568484170386,38.2020131116175,속초
1012,자가제빵선명희피자,무실점,강원도 원주시 시청로 76,127.926833167964,37.336829624682395,원주
1013,또바기언제나한결같이꼭그렇게,,강원도 원주시 무실로 54-1,127.947196617129,37.3466265522763,원주
1014,허갈닭강정앤핫도그,,강원도 횡성군 둔내면 고원로 231,128.22634548417298,37.5080247615556,횡성
1015,스테프핫도그,대관령점,강원도 평창군 대관령면 올림픽로 56,128.700452672841,37.6737886724528,평창
1016,59피자,치킨,강원도 원주시 서원대로 434,127.952354857735,37.3285974571518,원주
1017,햇살반찬도시락,,강원도 원주시 능라동길 70,127.93018776642599,37.3337948975482,원주
1018,크리스피크림도넛,문막휴게소강릉방면,강원도 원주시 문막읍 원문로 1234,127.858209077472,37.335262429330896,원주
1019,크리스피크림도넛,횡성휴게소강릉방면,강원도 횡성군 안흥면 영동고속도로 154,128.134541446289,37.462560803977496,횡성
1020,피자토비,,강원도 평창군 진부면 영정게길 2,128.561617328889,37.640480645938396,평창
1021,피자리아고,,강원도 철원군 갈말읍 삼부연로 24,127.31065104310301,38.145451517811296,철원
1022,봉수아피자,동해점,강원도 동해시 평릉길 32,129.101746235615,37.528693339446,동해
1023,파파존스,속초점,강원도 속초시 미시령로 3395,128.577493618516,38.207915540533705,속초
1024,도시락,,강원도 강릉시 원대로14번길 14,128.883094121145,37.75651143351121,강릉
1025,마마수제버거,,강원도 원주시 중앙시장길 11,127.948616316931,37.3502316254499,원주
1026,던킨도너츠,양양쏠비치점,강원도 양양군 손양면 선사유적로 678,128.666210973169,38.088255729588106,양양
1027,7월의무화과,,강원도 원주시 흥업면 연세대길 1,127.904318199294,37.2748346422844,원주
1028,피자마우스,,강원도 홍천군 북방면 홍천로 230,127.87092761279499,37.6899625712418,홍천
1029,피자나라치킨공주,강릉내곡점,강원도 강릉시 강변로 190,128.889631067242,37.7470465847366,강릉
1030,한솥도시락,강원도립대학점,강원도 강릉시 주문진읍 연주로 300,128.827152846188,37.879320389588706,강릉
1031,피자연합,,강원도 춘천시 서부대성로 221-1,127.742958081635,37.8736109526053,춘천
1032,7번가피자,원주점,강원도 원주시 봉화로 66,127.92910022263399,37.3502485726229,원주
1033,롯데리아,춘천명동EXP점,강원도 춘천시 중앙로 33,127.72835510546601,37.8819667396856,춘천
1034,뽕뜨락피자,강릉내곡점,강원도 강릉시 남부로17번길 23,128.881379432344,37.7420718524326,강릉
1035,라또래요,,강원도 속초시 동해대로 3938-1,128.601627089648,38.1864593921342,속초
1036,반찬과도시락,,강원도 원주시 라옹정길 2-3,127.964309496794,37.3188515932445,원주
1037,육림농원,,강원도 춘천시 춘천로151번길 21-2,127.729519454688,37.8775453735624,춘천
1038,톡톡치킨피자,,강원도 춘천시 영서로 2922,127.724970744241,37.9116296410172,춘천
1039,명품도시락,,강원도 태백시 황지북3길 16,128.990524895229,37.17514137812171,태백
1040,꿈드림도시락밥상,,강원도 강릉시 산양큰길 56-2,128.917915115957,37.781591019638704,강릉
1041,스트릿츄러스,홍천비발디파크점,강원도 홍천군 서면 한치골길 262,127.68727286577,37.6523327492752,홍천
1042,경리단밀크티,,강원도 태백시 황지로 195,128.988803920184,37.1752909172935,태백
1043,오구피자,,강원도 원주시 지정면 신지정로 190,127.875828807587,37.3742822975089,원주
1044,봉수아피자,원주점,강원도 원주시 지정면 신지정로 153-20,127.87948844158001,37.3734570637885,원주
1045,버거킹,원주명륜오일뱅크점,강원도 원주시 남원로 505,127.945222391049,37.3297207640132,원주
1046,칠천도시락,,강원도 원주시 일산로 33-3,127.94835811793502,37.34816796678511,원주
1047,오르새피자,동해점,강원도 동해시 한섬로 24,129.106375756266,37.5196486554442,동해
1048,치킨과바람피자,단계점,강원도 원주시 원문로 176-1,127.9305389111,37.3568816041072,원주
1049,갈비배달도시락,,강원도 강릉시 선수촌로63번길 14-16,128.869218453337,37.757794926865,강릉
1050,원주도시락땃땃,,강원도 원주시 옛시청길 20,127.944584887682,37.3526718180429,원주
1051,피치버스,,강원도 원주시 금불3길 28,127.931990234802,37.3497907023283,원주
1052,핫도그플래이스,,강원도 원주시 무실로 42,127.948110562619,37.347059490538,원주
1053,아이러브피자,양양점,강원도 양양군 양양읍 양양로 62-1,128.622190833014,38.0755228267296,양양
1054,반반한피자,,강원도 춘천시 공지로252번길 4,127.73655654724399,37.8645955174395,춘천
1055,패밀리피자&웰덤치킨퇴계,온의점,강원도 춘천시 퇴계로146번길 4-3,127.735064305485,37.8591859851129,춘천
1056,피자마루,&부어치킨관동대점,강원도 강릉시 관대길29번길 2-3,128.877452973543,37.7391367746246,강릉
1057,아이러브피자,속초새마을점,강원도 속초시 동해대로 3938-1,128.601627089648,38.1864593921342,속초
1058,쏭스핫도그,,강원도 춘천시 후석로 252,127.75281189258301,37.8739834533116,춘천
1059,피자헛,원주태장점,강원도 원주시 흥양로 10,127.948097154314,37.3829236415621,원주
1060,레몬팟,,강원도 춘천시 스무숲1길 44,127.751405711749,37.8493102627808,춘천
1061,갱스터펍앤피자,,강원도 춘천시 영서로2756번길 16,127.730009764774,37.89892785951921,춘천
1062,롯데리아,알펜시아리조트점,강원도 평창군 대관령면 솔봉로 325,128.683995344093,37.6592612701646,평창
1063,피굽남피자,,강원도 영월군 영월읍 하송로 107,128.46011655742902,37.1792982105312,영월
1064,믹존스피자,강릉본점,강원도 강릉시 강릉대로 162,128.88830965885901,37.75705790244661,강릉
1065,뽕뜨락피자,후평점,강원도 춘천시 세실로 260,127.755487008813,37.879683540911294,춘천
1066,피자스쿨,원주기업도시점,강원도 원주시 지정면 신지정로 322,127.872449984757,37.382595918880796,원주
1067,배달매장,,강원도 원주시 지정면 신지정로 153-24,127.879838216704,37.3736106079613,원주
1068,에그드랍,원주기업도시점,강원도 원주시 지정면 신지정로 202,127.87445089131901,37.3745241419567,원주
1069,59피자,횡성점,강원도 횡성군 횡성읍 읍하북로 24,127.98877818984501,37.495202321396,횡성
1070,버거킹,춘천온의점,강원도 춘천시 방송길 98-1,127.72038288878299,37.8677658878503,춘천
1071,임실치즈피자,지정환,강원도 춘천시 퇴계로 245,127.74582750722999,37.85561459260221,춘천
1072,로빈스피자,,강원도 정선군 정선읍 북실안길 32,128.650121891765,37.3767147886634,정선
1073,피자리아고,와수점,강원도 철원군 서면 와수로 200,127.440541087412,38.24078905078761,철원
1074,찹쌀꽈배기&핫도그,,강원도 춘천시 춘천로 306-4,127.74689844645901,37.881404375261,춘천
1075,한솥도시락,강릉원주대점,강원도 강릉시 지변길 20,128.872780603925,37.7731310190016,강릉
1076,베스트아이스크림할인점,,강원도 원주시 치악로 1878-2,127.956789396441,37.3486038804393,원주
1077,네오피자,동해점,강원도 동해시 감추로 8-2,129.120304461859,37.5145616257719,동해
1078,청년피자,춘천신북점,강원도 춘천시 신북읍 상천3길 15-5,127.791453613805,37.9324446737334,춘천
1079,갈비배달도시락스트릿테이블,강릉점,강원도 강릉시 선수촌로63번길 14-16,128.869218453337,37.757794926865,강릉
1080,베스킨라빈스,,강원도 원주시 나비허리길 123,127.96318020141099,37.3209328262458,원주
1081,이삭토스트,,강원도 영월군 영월읍 중앙로 259,128.479142768935,37.1693644405417,영월
1082,봉봉도시락,,강원도 강릉시 보래미상길 65,128.90907697361,37.7755416313033,강릉
1083,아이스크림할인점,,강원도 춘천시 새청말길 26,127.735725655373,37.8967513392492,춘천
1084,태백도시락,,강원도 태백시 번영로 14,128.987512876789,37.1461689803417,태백
1085,또또와아이스크림할인점,,강원도 춘천시 동내면 거두택지길 14,127.75300681977501,37.8530439069528,춘천
1086,픽미픽미아이스,호반점,강원도 원주시 지정면 신지정로 295,127.869281426451,37.3799522173508,원주
1087,소확행피자,,강원도 춘천시 지석로 74-11,127.74325635732,37.8498874601131,춘천
1088,피자헛,강릉교동점,강원도 강릉시 정원로 52,128.876184844873,37.7624556876502,강릉
1089,라온,,강원도 인제군 상남면 서울양양고속도로 117,128.288249973176,37.9175447542747,인제
1090,오리지널시카코피자,원주무실점,강원도 원주시 능라동길 63,127.930989028182,37.3337683341626,원주
1091,찹쌀미친꽈배기,,강원도 춘천시 충열로 32,127.733149265259,37.8986016390314,춘천
1092,파파존스,강릉점,강원도 강릉시 솔올로 25,128.877613137884,37.7642290827876,강릉
1093,훈콥스,,강원도 원주시 토지길 31-30,127.958124957862,37.3216700606649,원주
1094,썸썸데이,,강원도 춘천시 삭주로 82,127.73997957045799,37.8834256205299,춘천
1095,네오피자퀵,,강원도 춘천시 후만로 3,127.74641731377,37.8725282082356,춘천
1096,홍루이젠,명동점,강원도 춘천시 금강로 68-12,127.727855280187,37.8787759471764,춘천
1097,파인데이,,강원도 춘천시 충혼길24번길 18,127.720400454876,37.863116615277,춘천
1098,롯데리아,비발디점,강원도 홍천군 서면 한치골길 262,127.68727286577,37.6523327492752,홍천
1099,샤이바나,대명비발디점,강원도 홍천군 서면 한치골길 262,127.68727286577,37.6523327492752,홍천
1100,강정구의피자생각,,강원도 강릉시 경강로 2169,128.902273862697,37.7593665589394,강릉
1101,피치버스,양구점,강원도 양구군 양구읍 중심로 186,127.98992818104901,38.1069201600182,양구
1102,퀸즈블랙,동해점,강원도 동해시 천곡1길 9,129.112924910245,37.5249302962796,동해
1103,달콤,오늘도,강원도 춘천시 중앙로77번길 39-1,127.729303244217,37.8776079486386,춘천
1104,퀴즈노스오크밸리리조트점,,강원도 원주시 지정면 오크밸리2길 56,127.80773751272699,37.4076041596965,원주
1105,피자파는집서울,경기북부지사,강원도 춘천시 근화길15번길 26,127.718945937062,37.8720333451085,춘천
1106,던킨도너츠,강릉KTX점,강원도 강릉시 용지로 176,128.899646810776,37.7645404791988,강릉
1107,시장피자돈키돈키치킨,,강원도 원주시 흥업면 한라대길 3,127.911082295695,37.3049824064291,원주
1108,아이스크림깨끼몽땅,,강원도 원주시 남산로 24,127.94496596326599,37.3409214921881,원주
1109,꼬마식품,,강원도 원주시 무실로 54,127.947207954549,37.3465544683526,원주
1110,뉴해피점핑,,강원도 원주시 흥양로51번길 101,127.95611256188499,37.3866845014759,원주
1111,에그드랍원주,,강원도 원주시 지정면 신지정로 202,127.87445089131901,37.3745241419567,원주
1112,어반벨리,,강원도 춘천시 백령로 184,127.746619978984,37.8764120794789,춘천
1113,59피자,명동점,강원도 춘천시 서부대성로44번길 1,127.727816630073,37.883100790581295,춘천
1114,피자파는집,춘천효자점,강원도 춘천시 효자로 52-1,127.729768774318,37.8684185231364,춘천
1115,미경이네도시락&반찬,,강원도 동해시 평원로 76,129.115490027809,37.530807907753896,동해
1116,아이스크림할인점,,강원도 춘천시 춘천로256번길 1,127.74208581614201,37.8792765150819,춘천
1117,점심도시락배달전문점시골밥상,,강원도 강릉시 남구길18번길 15,128.906983583332,37.7658628017604,강릉
1118,한씨커피자작도점,,강원도 고성군 죽왕면 자작도선사길 110,128.541284987413,38.3079687599702,고성(강원)
1119,행복나눔도시락,,강원도 횡성군 횡성읍 문예로 149,127.973525296367,37.4857925056208,횡성
1120,아이스크림할인점,,강원도 원주시 남원로 528-19,127.948675166971,37.3301007802697,원주
1121,킹콩쥬스앤청춘핫도그,동해대동점,강원도 동해시 효자남길 6-1,129.10889623268199,37.486619767129795,동해
1122,피제이피자원주기업도시점,,강원도 원주시 지정면 조엄로 393,127.868737654291,37.374481895231,원주
1123,냠냠도시락,,강원도 춘천시 춘천로310번길 31,127.745834905154,37.879933408424,춘천
1124,아이스크림할인점,,강원도 원주시 서원대로 437,127.95300917060301,37.328877064467,원주
1125,명랑핫도그,강릉교동점,강원도 강릉시 교동광장로 139,128.88026028504498,37.764452615559705,강릉
1126,파파존스,한솔오크밸리점,강원도 원주시 지정면 오크밸리1길 66,127.81781587993,37.434653110085705,원주
1127,7번가피자,남원주점,강원도 원주시 늘품로 197,127.96333241641199,37.332764518358005,원주
1128,배스킨라빈스31,평창알펜시아점,강원도 평창군 대관령면 솔봉로 325,128.683995344093,37.6592612701646,평창
1129,버거플레이스,,강원도 속초시 청호해안길 31,128.601771106749,38.192864555697795,속초
1130,아이스크림할인점보물창고,,강원도 원주시 혁신로 346-1,127.982933644528,37.3354723119466,원주
1131,롯데리아,양양점,강원도 양양군 양양읍 양양로 15-1,128.62641721141898,38.077933042284,양양
1132,아이스크림조이,뜨란채점,강원도 춘천시 승지골길16번길 49,127.745702955208,37.8488655910774,춘천
1133,피자토리노,,강원도 원주시 만대로 180,127.923756247925,37.332853769306396,원주
1134,이태리도시락,,강원도 춘천시 백령로 4,127.73589578035102,37.8650355421099,춘천
1135,피자비토랩,강릉점,강원도 강릉시 선수촌로63번길 22-4,128.86816224033998,37.7567575252475,강릉
1136,픽미픽미아이스크림할인점,,강원도 동해시 평릉길 32,129.101746235615,37.528693339446,동해
1137,명량핫도그,철원동송점,강원도 철원군 동송읍 금학로 219,127.217799762528,38.2080635599691,철원
1138,명랑핫도그,원주기업도시점,강원도 원주시 지정면 가곡로 70,127.877163085055,37.3800237432862,원주
1139,던킨도너츠,횡성휴게소,강원도 횡성군 안흥면 영동고속도로 153,128.134443401844,37.46462442029609,횡성
1140,던킨도너츠,춘천역점,강원도 춘천시 공지로 591,127.716976636071,37.8846700486655,춘천
1141,더달달아이스크림할인점,,강원도 춘천시 후만로116번길 6-1,127.75730470243,37.876569742848794,춘천
1142,하드캐리아이스크림할인점,,강원도 원주시 지정면 신지정로 250,127.87086594127399,37.3778273458866,원주
1143,보키피자,,강원도 춘천시 백령로147번길 13,127.74189490624799,37.875347612595796,춘천
1144,아이스크림조이,,강원도 춘천시 승지골길 49,127.74126821866301,37.8530187018872,춘천
1145,픽미픽미아이스크림,원주단구점,강원도 원주시 단구초교길 12-16,127.965854249897,37.3210417619948,원주
1146,픽미픽미,,강원도 인제군 서화면 천도로 110,128.208747459129,38.222007196257294,인제
1147,배스킨라빈스,온의점,강원도 춘천시 방송길 70,127.71661168683,37.8701355893306,춘천
1148,평화도시락전문,,강원도 강릉시 경강로 2107,128.896544275074,37.755743128301,강릉
1149,치킨과바람피자,,강원도 속초시 먹거리9길 26,128.57646971849,38.1953610532027,속초
1150,자미당,단계점,강원도 원주시 백간공원길 14,127.92673076042401,37.3493099727124,원주
1151,도시락이야기,,강원도 횡성군 우천면 전재로90번길 22,128.080225493249,37.442768026159996,횡성
1152,아이스크림할인점,,강원도 원주시 단관길 177,127.963373317329,37.3182475590433,원주
1153,달시아이스크림세계과자할인,속초1호점,강원도 속초시 번영로43번길 25,128.580628333773,38.2058008220125,속초
1154,이쏭버거,,강원도 정선군 사북읍 사북2길 6-1,128.816203532778,37.227374052508395,정선
1155,더달달,동해이편한점,강원도 동해시 단봉길 39,129.121385349691,37.4794376782923,동해
1156,픽미픽미,무실점,강원도 원주시 시청로 40-1,127.92152762346501,37.338141850696395,원주
1157,피자스쿨,속초조양점,강원도 속초시 청대로 210,128.576735279897,38.1870527927279,속초
1158,더달달,,강원도 춘천시 퇴계로 144,127.735200035266,37.859366496629704,춘천
1159,배스킨라빈스,춘천장학점,강원도 춘천시 동면 춘천로 457,127.75553410857599,37.89294676082649,춘천
1160,강릉역옹막,,강원도 강릉시 중기2길 9,128.902424665725,37.7624378840035,강릉
1161,1988응답하라추억의옛날도시락,,강원도 춘천시 춘주로187번길 20-7,127.725988772703,37.8609582682647,춘천
1162,배스킨라빈스,문막점,강원도 원주시 문막읍 원문로 1595,127.83283880383699,37.3204510334115,원주
1163,픽미픽미아이스,양덕원점,강원도 홍천군 남면 양덕원로 80,127.76825704236099,37.616377858237904,홍천
1164,픽미픽미아이스,강릉점,강원도 강릉시 강릉대로419번길 9,128.909272961825,37.772080209742704,강릉
1165,픽미픽미아이스,단계점,강원도 원주시 봉화서부로 6,127.92088781682399,37.3563438883134,원주
1166,최은경수제상회,,강원도 강릉시 문화의길 17,128.893781321919,37.7553045927739,강릉
1167,강추찹쌀꽈배기&핫도그,,강원도 춘천시 춘천로 306-2,127.746886831821,37.881476432525396,춘천
1168,롯데리아,원주단관점,강원도 원주시 단관길 125,127.959761711851,37.3203820322849,원주
1169,던킨도너츠,동해천곡점,강원도 동해시 천곡로 86-2,129.115043812609,37.522873957417495,동해
1170,배스킨라빈스31,강릉입암점,강원도 강릉시 성덕포남로 53,128.91894931209498,37.75967020228,강릉
1171,피자헛,원주봉화점,강원도 원주시 백간길 25,127.92628784048901,37.3520851211912,원주
1172,청년피자,춘천퇴계점,강원도 춘천시 퇴계로 140-1,127.734915372622,37.85951903145371,춘천
1173,코와붕가,,강원도 양양군 현북면 하조대해안길 31,128.724476613876,38.0224813948071,양양
1174,픽미픽미아이스,진부점,강원도 평창군 진부면 청송로 92,128.55669294382,37.6365483451696,평창
1175,픽미픽미아이스반곡,아이파크점,강원도 원주시 늘품로 197,127.96333241641199,37.332764518358005,원주
1176,픽미픽미아이스,홍천점,강원도 홍천군 홍천읍 희망로 4,127.883236265657,37.693318328344,홍천
1177,응응스크르,속초조양점,강원도 속초시 동해대로 4178,128.579208872054,38.1923743690522,속초
1178,브라보명품찹쌀꽈배기,춘천퇴계점,강원도 춘천시 승지골길 13,127.74022234253799,37.849898827251394,춘천
1179,아이스께끼,,강원도 원주시 남원로442번길 16,127.94221361837799,37.3242765966375,원주
1180,응응스크르,춘천후평점,강원도 춘천시 춘천로 306-5,127.74716015595,37.88133285534779,춘천
1181,배스킨라빈스,강릉입암점,강원도 강릉시 성덕포남로 53,128.91894931209498,37.75967020228,강릉
1182,픽미픽미아이스,춘천효자점,강원도 춘천시 소전길 13-2,127.73211490428899,37.870252974044,춘천
1183,소확행피자,기업도시점,강원도 원주시 지정면 신지정로 322-1,127.873150396819,37.3824254619854,원주
1184,피자알볼로,,강원도 원주시 지정면 능마루길 4,127.873620045773,37.3851833494341,원주
1185,반올림피자샵,속초점,강원도 속초시 먹거리길 22,128.575015538564,38.19626915443521,속초
1186,에그박스,강릉역점,강원도 강릉시 용지로 176,128.899646810776,37.7645404791988,강릉
1187,피자나라치킨공주,,강원도 철원군 동송읍 금학로210번길 8-13,127.219945818992,38.207050744515705,철원
1188,피자사랑치킨사랑,,경기도 수원시 장안구 만석로20번길 28,126.98439896001699,37.2938461172506,수원 장안
1189,59피자,햇빛점,경기도 고양시 덕양구 중앙로558번길 16-16,126.836672852266,37.6236388770061,고양 덕양
1190,씨지브이범계,,경기도 안양시 동안구 동안로 119,126.951211662129,37.3892055758239,안양 동안
1191,임실치즈피자,금촌점,경기도 파주시 아동로 5,126.775367106938,37.764161181477704,파주
1192,봉구스밥버거,,경기도 연천군 전곡읍 전곡로154번길 10,127.068969851578,38.0259376620396,연천
1193,크리스피크림,현대중동점,경기도 부천시 길주로 180,126.762071535382,37.5043049309835,부천
1194,브이아이피자산관리,,경기도 용인시 수지구 풍덕천로148번길 22,127.09853466189101,37.3225420030318,용인 수지
1195,악마의레시피,,경기도 의정부시 행복로 13,127.048598398949,37.7401218676359,의정부
1196,피자리아,,경기도 파주시 탄현면 헤이리마을길 63,126.69846886921002,37.7891051779701,파주
1197,고로카,범계본점,경기도 안양시 동안구 평촌대로217번길 45,126.953516138912,37.389964866552795,안양 동안
1198,피자핫알라딘식당,,경기도 안산시 단원구 다문화2길 21-2,126.790540704697,37.33067950578521,안산
1199,박가네,,경기도 파주시 문산읍 사임당로 159,126.808243306753,37.867499582725,파주
1200,피자스쿨,,경기도 안양시 동안구 달안로 124,126.957826551273,37.396742905953005,안양 동안
1201,베스킨라빈스,,경기도 부천시 상일로94번길 37,126.75282225167801,37.4898902102578,부천
1202,파파존스,,경기도 고양시 일산동구 일산로 456,126.776575202896,37.6741995793769,고양 일산동
1203,59피자,인덕원1호점,경기도 안양시 동안구 흥안대로414번길 34,126.975948046614,37.3904946534211,안양 동안
1204,정강철도시락,,경기도 성남시 수정구 수정로 318,127.149472201154,37.451962736323104,성남 수정
1205,토스트킹,,경기도 평택시 청원로 1188,127.05497386838199,37.05206931682871,평택
1206,데이마트,,경기도 부천시 신흥로446번길 26,126.777966193307,37.5234732352804,부천
1207,피자스쿨5000,,경기도 수원시 장안구 대평로 86,126.993281141285,37.295940426558296,수원 장안
1208,롯데리아평택안중점,평택안중점,경기도 평택시 안중읍 안중로 109-1,126.92861705956001,36.988845328333,평택
1209,베스킨라빈스,의정부회룡점,경기도 의정부시 평화로 365,127.047959269678,37.724465963118796,의정부
1210,씨지브이안양8,,경기도 안양시 만안구 안양로 311,126.92017650713001,37.3996128448753,안양 만안
1211,씨지브이북수원,,경기도 수원시 장안구 경수대로 950,127.007494239324,37.30353946056221,수원 장안
1212,베스킨라빈스산본백두,,경기도 군포시 고산로 529,126.922513331511,37.3602305930794,군포
1213,미스터빅,중동점,경기도 부천시 석천로 171,126.762500483484,37.5029849068097,부천
1214,미스터피자,시흥은행점,경기도 시흥시 비둘기공원6길 13-1,126.791482151257,37.4422304865193,시흥
1215,버거킹,성남이마트점,경기도 성남시 수정구 수정로 201,127.141399637783,37.4442813117988,성남 수정
1216,맥도날드,북수원DT점,경기도 수원시 장안구 경수대로 991,127.002712214258,37.305193294319295,수원 장안
1217,도미노피자,대화점,경기도 고양시 일산서구 송포로 26,126.733259755779,37.668966946356704,고양 일산서
1218,미스터빅,,경기도 화성시 동탄반석로 156,127.071567284862,37.202316847736796,화성
1219,피자스쿨병점점,병점점,경기도 화성시 효행로 1063,127.043098567044,37.21496701804861,화성
1220,델리스타,,경기도 고양시 일산서구 호수로 817,126.751616105658,37.6679823561386,고양 일산서
1221,캠토,오산시청점,경기도 오산시 운암로 45,127.075863509945,37.1501943927817,오산
1222,한솥도시락,,경기도 용인시 기흥구 덕영대로 1700,127.077057365581,37.24729757535121,용인 기흥
1223,59피자,청과,경기도 시흥시 옥구천동로 402,126.730218518069,37.3567366774226,시흥
1224,빨라쪼델프레도,수원갤러리아점,경기도 수원시 팔달구 효원로 282,127.032257671215,37.2609789257851,수원 팔달
1225,수타짱임실치즈피자,,경기도 부천시 중동로 108,126.76697088528499,37.491795755569896,부천
1226,크리스피크림,분당수내점,경기도 성남시 분당구 황새울로200번길 45,127.114306280929,37.3784381493122,성남 분당
1227,힐링버거,,경기도 화성시 봉담읍 와우안길 43,126.976549045387,37.2155190310221,화성
1228,오봉도시락,수원아주대점,경기도 수원시 팔달구 아주로 51,127.043499301309,37.279560651968296,수원 팔달
1229,또띠와피자,,경기도 이천시 장호원읍 장감로 29-1,127.62607133691799,37.116278587989896,이천
1230,씨지브이동탄,,경기도 화성시 동탄중앙로 220,127.069305714114,37.204849220157705,화성
1231,피자오띠모,,경기도 평택시 서정북로 52,127.055269122946,37.0699679573239,평택
1232,이삭토스트,,경기도 의정부시 흥선로16번길 88,127.02680617883999,37.74418775511629,의정부
1233,수피자,,경기도 연천군 전곡읍 평화로 588,127.067801442167,38.0228650757767,연천
1234,버거킹,의정부신세계점,경기도 의정부시 평화로 525,127.045857428737,37.737982314148795,의정부
1235,던킨도넛,,경기도 포천시 소흘읍 송우로30번길 2-2,127.14561482113501,37.828227885092296,포천
1236,황철수피자,,경기도 평택시 안중읍 안중로114번길 22,126.92827333175501,36.9869228327004,평택
1237,이조건강원,,경기도 포천시 중앙로 179,127.206967150408,37.9014946910933,포천
1238,퍼레이드식당,,경기도 용인시 처인구 포곡읍 에버랜드로 199,127.202120421716,37.2940633153241,용인 처인
1239,59피자,모란역점,경기도 성남시 중원구 성남대로1148번길 2,127.129491588835,37.432273038786505,성남 중원
1240,던킨도너츠,이천중앙점,경기도 이천시 서희로60번길 1,127.443123226992,37.280889631053704,이천
1241,던킨도너츠,웅진플레이도시점,경기도 부천시 조마루로 2,126.744250562223,37.5000441490228,부천
1242,롯데리아,당동지점,경기도 군포시 고산로 262,126.94359708016,37.3467605491534,군포
1243,다빈치,,경기도 수원시 팔달구 권광로 181,127.032211120611,37.26373588268872,수원 팔달
1244,롯데리아양주덕정점,양주덕정점,경기도 양주시 고암길 306-77,127.068637600201,37.8367445179374,양주
1245,케이에프씨아주대,,경기도 수원시 팔달구 아주로 37,127.043538839473,37.2782183488356,수원 팔달
1246,허브힐링버거,,경기도 포천시 신북면 청신로947번길 35,127.131685045689,37.965916255765706,포천
1247,최샌드위치,,경기도 동두천시 중앙로361번길 23,127.05676817503799,37.9140910604148,동두천
1248,가평휴게소던킨도너츠,,경기도 가평군 설악면 미사리로 544,127.543449460658,37.7016921370119,가평
1249,피자마루,소사본동점,경기도 부천시 호현로489번길 38,126.791431251312,37.4805062334134,부천
1250,송산휴게소나뚜루아이스크림,,경기도 화성시 송산면 평택시흥고속도로 25,126.756654177171,37.2368427412773,화성
1251,한솥,신구대점,경기도 성남시 중원구 광명로 361,127.165897569015,37.4466102982041,성남 중원
1252,끌라벨,,경기도 수원시 영통구 봉영로 1579,127.071647870742,37.252733947355,수원 영통
1253,토마토피자,,경기도 부천시 중동로 108,126.76697088528499,37.491795755569896,부천
1254,미스심햄버거,,경기도 수원시 팔달구 덕영대로 923-1,127.00168238446399,37.2661766432195,수원 팔달
1255,스위트번스,,경기도 수원시 영통구 청명남로 32,127.07570911896299,37.252477369385204,수원 영통
1256,자이언트피자,,경기도 고양시 덕양구 충장로 118-35,126.83541293171899,37.6223469968071,고양 덕양
1257,은하수25시랜드내아이스크림판매점,,경기도 안산시 단원구 선부광장1로 38,126.809381213389,37.3366283968472,안산 단원
1258,니즈몰,,경기도 성남시 중원구 성남대로 1136,127.129762719415,37.4313018775459,성남 중원
1259,한국맥도날드신맥수원역APOD점,,경기도 수원시 팔달구 덕영대로 924,127.00008813955601,37.2656675906019,수원 팔달
1260,현우네,,경기도 안양시 만안구 안양로329번길 108,126.91311541588301,37.4013232374956,안양 만안
1261,씨지브이동수원1,,경기도 수원시 팔달구 권광로 181,127.032211120611,37.26373588268872,수원 팔달
1262,스낵·피자코너,,경기도 여주시 가남읍 여주남로 722,127.56830777240299,37.2377170732834,여주
1263,버거프라자,,경기도 화성시 향남읍 평3길 11,126.909057347221,37.1311508797808,화성
1264,시카고피자,,경기도 용인시 기흥구 덕영대로 1732,127.08116106433701,37.2398053310636,용인 기흥
1265,다미향임실치즈피자,,경기도 수원시 영통구 청명로 132,127.07436354701099,37.257422878938996,수원 영통
1266,베스킨라빈스던킨도나스,,경기도 고양시 덕양구 중앙로558번길 13,126.835811853731,37.624369222783606,고양 덕양
1267,노란모자피자,,경기도 오산시 원동로7번동길 15-1,127.07103669121099,37.1435425070201,오산
1268,봉구스밥버거,,경기도 남양주시 화도읍 수레로 1234-24,127.30452592706699,37.6474084395495,남양주
1269,맥도날드,부천역점,경기도 부천시 부천로 1,126.78263424711001,37.4840290791579,부천
1270,피자리에또,,경기도 하남시 대청로 119,127.22737073128201,37.5395949006987,하남
1271,피자팜,,경기도 화성시 봉담읍 동화길 91,126.958856927059,37.2165632892644,화성
1272,더피자,홈플러스동수원점,경기도 수원시 팔달구 효원로 257,127.030115556208,37.26274555640671,수원 팔달
1273,맥도날드,안양점,경기도 안양시 만안구 안양로292번길 22,126.923123746784,37.3988648110349,안양 만안
1274,패밀리피자치킨,,경기도 용인시 처인구 포곡읍 포곡로124번길 9,127.219762519347,37.2698332095826,용인 처인
1275,비틀즈피자,,경기도 성남시 중원구 산성대로420번길 42,127.16348963507099,37.4487017877294,성남 중원
1276,여명블랑제,,경기도 용인시 수지구 성복2로 17,127.08104275500601,37.310765418534295,용인 수지
1277,제이스버거피자,,경기도 여주시 세종로14번길 7,127.63581658930799,37.29671493299529,여주
1278,59피자,,경기도 파주시 법원읍 술이홀로 881-3,126.87332807433799,37.849886353275,파주
1279,제이에스김밥앤햄버거,,경기도 수원시 권선구 정조로 392-1,127.014771976486,37.2445429864513,수원 권선
1280,피자엔,,경기도 부천시 석천로 181,126.762669513725,37.5037075042874,부천
1281,용인대학교학생회관식당,,경기도 용인시 처인구 용인대학로 134,127.17071319493,37.2278688811871,용인 처인
1282,아리랑핫도그,,경기도 부천시 길주로 180,126.762071535382,37.5043049309835,부천
1283,맘스터치치킨앤피자굼터,,경기도 포천시 일동면 화동로1043번길 8-17,127.316933064228,37.95707353421261,포천
1284,뉴욕핫도그1,,경기도 수원시 장안구 경수대로 893,127.01131625706999,37.2985163742515,수원 장안
1285,그루비무,롯데안양점,경기도 안양시 만안구 만안로 224,126.92308718467,37.4006305596689,안양 만안
1286,라비아화덕피자,,경기도 수원시 팔달구 행궁로 49-2,127.01572071295,37.278179540783,수원 팔달
1287,토마토,,경기도 시흥시 중심상가3길 23,126.736064737726,37.3439953266867,시흥
1288,크리스피크림,의정부행복로점,경기도 의정부시 행복로 10,127.048672924881,37.73961789769739,의정부
1289,배스킨라빈스삼송점,삼송점,경기도 고양시 덕양구 삼송로 92,126.884343001747,37.650823616661604,고양 덕양
1290,케이티에스제이,,경기도 안산시 단원구 중앙대로 462,126.787278077422,37.3279699561573,안산 단원
1291,미스터츄로,,경기도 용인시 기흥구 서천서로20번길 2,127.07271930788099,37.2407307356721,용인 기흥
1292,봉구스밥버거,,경기도 안산시 상록구 해양1로 11,126.825783958626,37.2949107700425,안산
1293,버거킹,광주경안점,경기도 광주시 경안로 10,127.25954084157401,37.4101456147935,광주
1294,빵엔도너츠,,경기도 시흥시 승지로 54,126.810341524249,37.368742814170105,시흥
1295,미스터뚱,,경기도 이천시 백사면 현방로 81,127.492231142468,37.340115035943896,이천
1296,T.story,,경기도 이천시 향교로 170,127.455925919867,37.285130320589,이천
1297,비비큐치킨앤피자,,경기도 의정부시 오목로205번길 68,127.09552725941299,37.74651915374979,의정부
1298,나폴리피자,,경기도 고양시 일산서구 킨텍스로 171,126.74405057490299,37.6615679464144,고양 일산서
1299,한국피자헛의정부역점-2,,경기도 의정부시 행복로 12,127.048818101508,37.7397992733986,의정부
1300,파파존스평촌지점,평촌지점,경기도 안양시 동안구 평촌대로 126,126.960605353967,37.3836208073591,안양 동안
1301,브룩클린피자,,경기도 고양시 일산서구 킨텍스로 171,126.74405057490299,37.6615679464144,고양 일산서
1302,김여주피자,,경기도 의정부시 오목로225번길 69-17,127.097146124722,37.7468289027989,의정부
1303,오아저씨수제고로께,,경기도 성남시 중원구 산성대로 260,127.146329804709,37.440054956263,성남 중원
1304,59피자,옥정신도시점,경기도 양주시 옥정동로 257,127.09613666170401,37.829750700193294,양주
1305,지정환피자,,경기도 안양시 동안구 시민대로 230,126.95649889206499,37.392306965353605,안양 동안
1306,그릴쿡,,경기도 의정부시 시민로131번길 19,127.049679443741,37.7389862922079,의정부
1307,던킨도너츠,남양주평내점,경기도 남양주시 경춘로1256번길 10,127.234704265995,37.645660645514795,남양주
1308,벨라민스,,경기도 고양시 일산동구 정발산로 43-7,126.772926204543,37.657610107396295,고양 일산동
1309,SUBWAY,,경기도 고양시 일산서구 호수로 817,126.751616105658,37.6679823561386,고양 일산서
1310,바른생활까페,,경기도 남양주시 늘을2로 26,127.24409348005301,37.6550830422164,남양주
1311,서브웨이,,경기도 부천시 길주로 288,126.77422203378599,37.5027016634211,부천
1312,루시퍼버거,,경기도 고양시 일산동구 무궁화로 12,126.766394054108,37.6612901765097,고양 일산동
1313,스쿨피자,,경기도 광주시 벌원길 67,127.248333559573,37.4159409370685,광주
1314,던킨도너츠,킨텍스2전시장점,경기도 고양시 일산서구 한류월드로 407,126.742244215322,37.663837258588295,고양 일산서
1315,피자아볼로,,경기도 시흥시 정왕대로 78,126.72499701807101,37.35312135274621,시흥
1316,피자해븐,,경기도 화성시 동탄공원로3길 28,127.061621996352,37.2085461939798,화성
1317,피자스쿨,,경기도 광주시 중앙로 323,127.25814114230499,37.428365714677,광주
1318,소풍도시락,,경기도 안산시 단원구 초지로 100,126.815206340361,37.30774468345879,안산 단원
1319,피자,,경기도 용인시 수지구 신봉1로48번길 11,127.07985452593,37.3231010613259,용인 수지
1320,피자헛,신봉점,경기도 용인시 수지구 수지로 217,127.084070870539,37.32060172414021,용인 수지
1321,이삭토스트,일산무원마을점,경기도 고양시 덕양구 충장로 18,126.83442716386001,37.6143812334,고양 덕양
1322,이호용피자,,경기도 오산시 궐리사로 45-9,127.058360708082,37.1599958550023,오산
1323,야미커피앤샌드위치,,경기도 안양시 동안구 부림로 55,126.96749103908701,37.387916145324795,안양 동안
1324,크림슨피자,,경기도 성남시 중원구 원터로 18,127.144761775493,37.428888344361404,성남 중원
1325,도미노피자,김포구래점,경기도 김포시 김포한강9로12번길 97-10,126.627286552088,37.6408682680118,김포
1326,송씨화덕,,경기도 수원시 팔달구 향교로 52,127.006460542395,37.2689201030235,수원 팔달
1327,빨라조,,경기도 고양시 일산서구 호수로 817,126.751616105658,37.6679823561386,고양 일산서
1328,아이스크림붕어빵,,경기도 김포시 중봉로 3,126.697307663668,37.6227861573765,김포
1329,맥도날드,부천원종DT점,경기도 부천시 소사로 689,126.804393607961,37.5177698832648,부천
1330,달봉감자,,경기도 수원시 권선구 매송고색로 680,126.97884405791099,37.2500326074863,수원 권선
1331,피자헛,,경기도 용인시 기흥구 신구로 6-1,127.109783740155,37.2727788311686,용인 기흥
1332,오아저씨와수제고롯케,,경기도 용인시 기흥구 동백중앙로 191,127.15294547642,37.2708698188951,용인 기흥
1333,베스킨라빈스,,경기도 남양주시 늘을2로 27,127.243028591919,37.6550401719918,남양주
1334,아리랑수제고로케,,경기도 고양시 일산서구 호수로 817,126.751616105658,37.6679823561386,고양 일산서
1335,에스피지,,경기도 성남시 분당구 성남대로43번길 11,127.106658208746,37.3387600768292,성남 분당
1336,던킨도너츠,수원민자역사점,경기도 수원시 팔달구 덕영대로 924,127.00008813955601,37.2656675906019,수원 팔달
1337,배스킨라빈스,수원역사3호점,경기도 수원시 팔달구 덕영대로 924,127.00008813955601,37.2656675906019,수원 팔달
1338,브링웰피자,석수점,경기도 안양시 만안구 경수대로 1203,126.91417517992399,37.4163266133805,안양 만안
1339,씨지브이일산매점3,,경기도 고양시 일산동구 정발산로 24,126.772025233806,37.655888808787,고양 일산동
1340,파파존스화정점,화정점,경기도 고양시 덕양구 중앙로 628,126.828897421578,37.6275264515597,고양 덕양
1341,베스킨라빈스,,경기도 고양시 덕양구 도래울로 108,126.872201351914,37.6346519458661,고양 덕양
1342,코레일유통유빅,,경기도 부천시 송내대로 43,126.75275749974399,37.4876639710696,부천
1343,한올림피자,,경기도 성남시 중원구 자혜로16번길 37-1,127.160094746001,37.44706479295761,성남 중원
1344,롯데리아회룡역점,회룡역점,경기도 의정부시 평화로 374,127.04853870566299,37.7252815615086,의정부
1345,피자투어&치킨,,경기도 안양시 만안구 양화로 59,126.912870962524,37.3986989019362,안양 만안
1346,이삭토스트전문점,장호원점,경기도 이천시 장호원읍 샘재로 151,127.629203956131,37.1176851965518,이천
1347,케이에프씨수원역사1매장,,경기도 수원시 팔달구 덕영대로 924,127.00008813955601,37.2656675906019,수원 팔달
1348,케이에프씨안양매장,,경기도 안양시 만안구 안양로292번길 7,126.92227923940001,37.3986859146662,안양 만안
1349,코레일유통스테프핫도그,,경기도 부천시 송내대로 43,126.75275749974399,37.4876639710696,부천
1350,한솥,도시락남양주경복대앞점,경기도 남양주시 진접읍 경복대로 424,127.212118884421,37.733651505128606,남양주
1351,쌀피자,,경기도 안산시 단원구 와동공원로 132,126.82159009392599,37.3432112562121,안산 단원
1352,웰빙임실치즈피자,,경기도 수원시 영통구 청명로 132,127.07436354701099,37.257422878938996,수원 영통
1353,피자꼬꼬,,경기도 양주시 장흥면 호국로 439-24,126.964473186993,37.71285085636861,양주
1354,코코로벤또,,경기도 성남시 분당구 황새울로360번길 42,127.122685949692,37.3850965061383,성남 분당
1355,씨지브이의정부,,경기도 의정부시 평화로 525,127.045857428737,37.737982314148795,의정부
1356,부오나화덕피자,,경기도 고양시 일산서구 고양대로 719-12,126.776562027793,37.6839753882517,고양 일산서
1357,던킨도너츠용인구갈점,용인구갈점,경기도 용인시 기흥구 관곡로64번길 18,127.112482093159,37.2811251998346,용인 기흥
1358,던킨도너츠킨텍스홈플러스,,경기도 고양시 일산서구 호수로 817,126.751616105658,37.6679823561386,고양 일산서
1359,피자사랑,,경기도 화성시 장안면 포승장안로 1413,126.83251481739201,37.0748509954619,화성
1360,야끼토리텐,,경기도 고양시 일산동구 중앙로 1283,126.772108643429,37.6604578053899,고양 일산동
1361,더블킹피자,,경기도 부천시 길주로 297,126.775218102462,37.5040365165894,부천
1362,베스킨라빈스아이스크림,,경기도 시흥시 정왕대로 210,126.73685615958901,37.3459320362184,시흥
1363,베스킨라빈스,,경기도 부천시 조마루로 2,126.744250562223,37.5000441490228,부천
1364,하남만휴게소뉴욕핫도그,,경기도 하남시 중부고속도로 117,127.206082318804,37.5303259503268,하남
1365,노란모자피자남촌점,남촌점,경기도 오산시 성호대로 21,127.06383718126101,37.1495683566211,오산
1366,배스킨라빈스백마점,백마점,경기도 고양시 일산동구 강촌로 157,126.79095338669799,37.6536606173222,고양 일산동
1367,베스킨라빈스광교역점,광교역점,경기도 용인시 수지구 광교중앙로 319,127.069089145975,37.298507316325,용인 수지
1368,마쯔오피자,,경기도 광명시 목감로268번길 23-1,126.85685403014799,37.48322976909,광명
1369,버거킹,분당정자점,경기도 성남시 분당구 정자일로 234,127.106273828981,37.3711871110814,성남 분당
1370,롯데리아,안양관양점,경기도 안양시 동안구 관악대로 291,126.955320642005,37.4031543929982,안양 동안
1371,크라제인터내셔널,,경기도 성남시 분당구 판교역로2번길 14,127.112709685202,37.3845715357691,성남 분당
1372,투데이스,,경기도 성남시 분당구 수내로46번길 20,127.115870009994,37.3798915760745,성남 분당
1373,명품임실치즈피자,,경기도 파주시 동패로 115,126.74016122404801,37.7126134201905,파주
1374,한솥분식,,경기도 수원시 팔달구 매산로20번길 3,127.00376436785999,37.2673205413215,수원 팔달
1375,신화관광개발롯데리아,,경기도 하남시 대청로 26,127.21507299566099,37.5404418922301,하남
1376,도미노피자,의왕점,경기도 의왕시 효행로 54,126.972339723475,37.3520237006501,의왕
1377,피자스쿨정왕점,정왕점,경기도 시흥시 함송로 23,126.731007602582,37.3635030319946,시흥
1378,더써드플레이스,,경기도 용인시 수지구 경부고속도로 400,127.10484685067499,37.3325829662516,용인 수지
1379,씨지브이김포풍무,,경기도 김포시 풍무로 167,126.72410212282401,37.60995118670471,김포
1380,아카데미PC방곡반,5호점,경기도 수원시 권선구 동수원로146번길 253,127.03109557338101,37.2408029758889,수원 권선
1381,쉘브르페스토랑,,경기도 안산시 단원구 달미로 83-1,126.81494054173099,37.3433520741215,안산 단원
1382,피자킴,,경기도 용인시 처인구 모현면 백옥대로2384번길 20-11,127.25153997366199,37.3354581235495,용인 처인
1383,KFC월드쇼핑매장,,경기도 성남시 분당구 탄천상로151번길 20,127.10680901567801,37.34032009119729,성남 분당
1384,퀴즈피플,오산점,경기도 오산시 운암로 113,127.077949983724,37.156365225264395,오산
1385,크리스피크림,롯데일산점,경기도 고양시 일산동구 중앙로 1283,126.772108643429,37.6604578053899,고양 일산동
1386,배스킨라빈스,화성태안점,경기도 화성시 병점1로 218,127.04268754571899,37.2136120489587,화성
1387,임실엔치즈피자,영통점,경기도 수원시 영통구 청명로 51,127.080303165079,37.251972484776,수원 영통
1388,러브피자셀,,경기도 파주시 평화로 352,126.743764634591,37.7732168633964,파주
1389,한식당,,경기도 용인시 기흥구 이현로29번길 86-14,127.099472444545,37.3006797395358,용인 기흥
